S. No.,State,District,Location,Longitude,Latitude,Year,pH,EC (µS/cm at,CO3 (mg/L),HCO3,Cl (mg/L),F (mg/L),SO4,NO3,PO4,Total Hardness,Ca (mg/L),Mg (mg/L),Na (mg/L),K (mg/L),Fe (ppm),As (ppb),U (ppb),coordinate_flag,NO3_extreme_flag
12001.0,Punjab,Mansa,Joga,75.4229,3.1611,2023.0,8.26,1880.0,0.0,305.0,169.0,0.85,578.0,0.0,0.0,314.0,59.0,41.0,357.0,7.0,0.63,0.89,16.77,INVALID,
11542.0,Punjab,Bathinda,Mehma Bhagwana,74.8162,3.2862,2023.0,8.14,2081.0,0.0,818.0,116.0,4.88,295.0,38.0,0.0,157.0,35.0,17.0,455.0,34.0,0.07,5.8,62.9,INVALID,
12020.0,Punjab,Mansa,Kalho,75.2708,3.0292,2023.0,7.2,2333.0,0.0,928.0,277.0,0.54,82.0,21.0,0.0,441.0,114.0,38.0,292.0,143.0,0.25,3.52,25.57,INVALID,
12022.0,Punjab,Mansa,Khokhar Kalan,75.3464,3.0217,2023.0,7.58,2682.0,0.0,915.0,234.0,1.0,350.0,130.0,0.0,383.0,27.0,76.0,322.0,371.0,0.03,0.99,102.12,INVALID,
11688.0,Punjab,Fazilka,Sabuana,74.0037,3.3301,2023.0,7.72,3598.0,0.0,732.0,659.0,1.8,102.0,150.0,0.0,430.0,44.0,78.0,513.0,173.0,0.06,1.7,16.1,INVALID,
12025.0,Punjab,Mansa,Mansa Khurd,75.4136,3.009,2023.0,7.2,977.0,0.0,549.0,58.0,0.9,0.0,33.0,0.0,255.0,39.0,38.0,138.0,9.0,0.02,2.25,40.28,INVALID,
2858.0,Jammu & Kashmir,Rajouri,Dayala,74.3688,33.2364,2023.0,7.21,420.0,0.0,283.0,5.0,0.18,13.0,3.0,0.0,228.0,79.0,7.0,9.0,1.0,-0.04,0.13,0.97,,
2857.0,Jammu & Kashmir,Mahreen,Hore,75.291,32.423,2023.0,6.94,280.0,0.0,166.0,5.0,0.21,9.0,6.0,0.0,145.0,50.0,5.0,9.0,1.0,-0.03,0.59,0.44,,
2856.0,Jammu & Kashmir,Kupwara,Wadipora,74.2333,34.4097,2023.0,6.91,582.0,0.0,267.0,28.0,0.14,18.0,36.0,0.0,265.0,79.0,17.0,19.0,0.0,-0.02,0.2,0.29,,
2855.0,Jammu & Kashmir,Kupwara,Trehgam,74.1753,34.5167,2023.0,6.96,855.0,0.0,488.0,33.0,0.18,34.0,13.0,0.0,363.0,108.0,23.0,59.0,1.0,-0.02,0.14,2.46,,
2854.0,Jammu & Kashmir,Kupwara,Gulgam,74.2194,34.5369,2023.0,6.96,789.0,0.0,308.0,55.0,0.22,31.0,54.0,0.0,287.0,82.0,21.0,45.0,11.0,-0.02,0.35,0.14,,
2853.0,Jammu & Kashmir,Kupwara,Dohama,74.1475,34.4881,2023.0,7.04,634.0,0.0,257.0,43.0,0.21,33.0,24.0,0.0,282.0,77.0,23.0,18.0,1.0,-0.04,0.72,0.1,,
2852.0,Jammu & Kashmir,Kupwara,Lassipora,74.3831,34.5081,2023.0,6.42,427.0,0.0,139.0,33.0,0.08,16.0,53.0,1.29,144.0,42.0,10.0,30.0,3.0,0.0,1.98,0.01,,
2851.0,Jammu & Kashmir,Kupwara,Cherkut,74.3264,34.5444,2023.0,6.81,329.0,0.0,181.0,13.0,0.17,10.0,3.0,0.0,134.0,38.0,10.0,16.0,6.0,0.02,1.14,0.04,,
2850.0,Jammu & Kashmir,Kupwara,Chanjmul,74.1822,34.3917,2023.0,6.68,272.0,0.0,132.0,10.0,0.13,9.0,11.0,0.0,129.0,38.0,9.0,6.0,0.0,-0.04,0.09,0.03,,
2859.0,Jammu & Kashmir,Rajouri,Dharamshal,74.4057,33.1385,2023.0,6.97,730.0,0.0,407.0,46.0,0.21,12.0,3.0,0.0,342.0,117.0,12.0,32.0,2.0,-0.04,1.47,1.0,,
2860.0,Jammu & Kashmir,Rajouri,Lower Kharak,74.4165,33.1662,2023.0,6.89,760.0,0.0,505.0,10.0,0.23,14.0,10.0,0.0,406.0,131.0,19.0,16.0,2.0,-0.04,0.15,3.63,,
2861.0,Jammu & Kashmir,Rajouri,Panja,74.4157,33.1801,2023.0,7.05,850.0,0.0,505.0,28.0,0.33,27.0,28.0,0.0,460.0,153.0,19.0,19.0,2.0,0.01,0.31,2.88,,
2862.0,Jammu & Kashmir,Rajouri,Solki,74.4328,33.1606,2023.0,6.91,790.0,0.0,518.0,15.0,0.23,16.0,10.0,0.0,421.0,137.0,19.0,17.0,4.0,-0.04,0.15,2.3,,
2863.0,Jammu & Kashmir,Rajouri,Bagnoti,74.3033,33.1426,2023.0,7.31,850.0,0.0,442.0,45.0,0.38,43.0,15.0,0.0,395.0,132.0,16.0,46.0,2.0,-0.04,0.12,4.38,,
2864.0,Jammu & Kashmir,Rajouri,Bareri,74.2251,33.1554,2023.0,7.27,1630.0,0.0,613.0,239.0,0.51,92.0,44.0,0.0,685.0,192.0,50.0,143.0,7.0,-0.04,0.31,11.62,,
2865.0,Jammu & Kashmir,Rajouri,Bhatta Morh,74.1876,33.2148,2023.0,7.07,640.0,0.0,419.0,10.0,0.26,13.0,10.0,0.0,302.0,99.0,13.0,29.0,2.0,0.11,0.17,2.63,,
2866.0,Jammu & Kashmir,Rajouri,Chowki Handa,74.1699,33.1731,2023.0,7.06,740.0,0.0,478.0,13.0,0.2,25.0,0.0,0.0,400.0,124.0,22.0,11.0,2.0,-0.04,0.48,1.95,,
2867.0,Jammu & Kashmir,Rajouri,Darhal Quilla,74.1505,33.2243,2023.0,6.92,660.0,0.0,431.0,10.0,0.21,14.0,3.0,0.0,351.0,125.0,10.0,9.0,1.0,-0.04,0.65,3.15,,
2868.0,Jammu & Kashmir,Rajouri,Ding,74.2763,33.0878,2023.0,7.09,620.0,0.0,314.0,20.0,0.29,25.0,33.0,0.0,302.0,89.0,19.0,21.0,1.0,-0.04,0.25,2.82,,
2869.0,Jammu & Kashmir,Rajouri,Gahgrot,74.265,33.0974,2023.0,7.31,710.0,0.0,442.0,10.0,0.23,29.0,12.0,0.0,350.0,100.0,24.0,32.0,1.0,-0.04,0.09,0.67,,
2870.0,Jammu & Kashmir,Rajouri,Jabah,74.3435,33.0683,2023.0,7.15,790.0,0.0,454.0,30.0,0.27,29.0,12.0,0.0,410.0,132.0,19.0,22.0,1.0,-0.03,0.32,2.56,,
2871.0,Jammu & Kashmir,Rajouri,Jhangar,74.0472,33.2404,2023.0,7.28,970.0,0.0,509.0,53.0,0.3,53.0,12.0,0.0,465.0,128.0,35.0,47.0,5.0,-0.04,0.28,1.93,,
2872.0,Jammu & Kashmir,Rajouri,Kalal,74.233,33.0802,2023.0,7.14,760.0,0.0,453.0,15.0,0.22,22.0,32.0,0.0,376.0,115.0,22.0,30.0,2.0,-0.02,0.12,1.98,,
2873.0,Jammu & Kashmir,Rajouri,Kalsian,74.1391,33.1844,2023.0,7.15,680.0,0.0,429.0,15.0,0.28,17.0,8.0,0.0,355.0,114.0,17.0,18.0,1.0,-0.04,0.09,1.39,,
2874.0,Jammu & Kashmir,Rajouri,Lam,74.127,33.2497,2023.0,7.18,770.0,0.0,351.0,41.0,0.23,65.0,3.0,0.88,342.0,107.0,18.0,21.0,26.0,-0.01,3.59,1.06,,
2875.0,Jammu & Kashmir,Rajouri,Laroka,74.0969,33.2356,2023.0,7.19,790.0,0.0,454.0,33.0,0.22,22.0,3.0,0.0,390.0,134.0,13.0,30.0,2.0,-0.04,0.87,1.56,,
2849.0,Jammu & Kashmir,Kupwara,Tarich,74.3256,34.4356,2023.0,6.9,319.0,0.0,168.0,15.0,0.13,10.0,4.0,0.69,136.0,42.0,7.0,12.0,4.0,-0.02,0.35,0.04,,
2848.0,Jammu & Kashmir,Kupwara,Radbug,74.3025,34.4606,2023.0,7.07,1030.0,0.0,397.0,112.0,0.2,39.0,9.0,0.0,437.0,129.0,27.0,50.0,3.0,-0.02,0.4,0.13,,
2846.0,Jammu & Kashmir,Kupwara,Guloora,74.3158,34.3875,2023.0,6.98,227.0,0.0,114.0,5.0,0.26,5.0,11.0,0.0,101.0,32.0,5.0,8.0,1.0,4.42,1.78,0.0,,
2876.0,Jammu & Kashmir,Rajouri,Naunihal,74.2129,33.1718,2023.0,8.25,460.0,0.0,166.0,23.0,0.46,46.0,20.0,0.0,69.0,14.0,9.0,54.0,38.0,-0.04,1.81,0.81,,
2817.0,Jammu & Kashmir,Kathua,Konthal,75.2603,32.4236,2023.0,7.0,320.0,0.0,197.0,5.0,0.24,7.0,4.0,0.0,150.0,50.0,6.0,14.0,1.0,0.02,0.36,0.86,,
2818.0,Jammu & Kashmir,Kathua,Kootah,75.2417,32.5114,2023.0,6.28,510.0,0.0,185.0,27.0,0.21,23.0,77.0,0.0,235.0,70.0,14.0,18.0,5.0,-0.02,0.27,0.1,,
2819.0,Jammu & Kashmir,Kathua,Lale Chak,75.1978,32.4542,2023.0,7.21,420.0,0.0,274.0,5.0,0.3,8.0,6.0,0.0,220.0,70.0,11.0,13.0,1.0,0.06,0.16,1.25,,
2820.0,Jammu & Kashmir,Kathua,Londi,75.2125,32.425,2023.0,7.25,480.0,0.0,299.0,13.0,0.24,9.0,14.0,0.0,245.0,72.0,16.0,15.0,2.0,-0.02,0.22,1.48,,
2821.0,Jammu & Kashmir,Kathua,Nilcha,75.2542,32.5597,2023.0,7.09,320.0,0.0,201.0,8.0,0.29,7.0,3.0,0.0,175.0,56.0,9.0,7.0,1.0,-0.04,0.15,0.44,,
2822.0,Jammu & Kashmir,Kathua,Phalora,75.1342,32.4778,2023.0,7.7,990.0,0.0,567.0,45.0,0.61,40.0,12.0,0.0,390.0,116.0,24.0,92.0,2.0,-0.03,0.17,3.33,,
2823.0,Jammu & Kashmir,Kathua,Barni,75.656,32.402,2023.0,6.9,350.0,0.0,219.0,7.0,0.31,11.0,3.0,0.0,181.0,52.0,12.0,12.0,1.0,-0.02,0.29,0.24,,
2824.0,Jammu & Kashmir,Kathua,Kathua,75.5292,32.3639,2023.0,6.56,450.0,0.0,210.0,25.0,0.19,28.0,5.0,0.0,150.0,46.0,9.0,42.0,6.0,1.37,0.87,0.08,,
2825.0,Jammu & Kashmir,Kathua,Kothian,75.5083,32.3667,2023.0,6.38,370.0,0.0,138.0,15.0,0.22,36.0,33.0,0.0,161.0,48.0,10.0,14.0,2.0,1.81,0.06,0.03,,
2826.0,Jammu & Kashmir,Kathua,Lakhanpur Fort,75.6,32.381,2023.0,6.51,310.0,0.0,156.0,15.0,0.28,26.0,5.0,0.0,151.0,48.0,7.0,12.0,5.0,0.21,0.47,0.06,,
2827.0,Jammu & Kashmir,Kathua,Mukandpur,75.3689,32.3694,2023.0,7.24,410.0,0.0,275.0,7.0,0.18,11.0,7.0,0.0,226.0,81.0,6.0,11.0,2.0,-0.03,0.23,0.75,,
2828.0,Jammu & Kashmir,Kathua,Nanke Chak (Sherpur),75.468,32.381,2023.0,6.83,190.0,0.0,105.0,8.0,0.12,16.0,3.0,0.0,90.0,29.0,4.0,8.0,1.0,5.78,0.04,0.11,,
2829.0,Jammu & Kashmir,Kathua,Jindor,75.597,32.392,2023.0,6.62,420.0,0.0,231.0,15.0,0.34,20.0,3.0,0.0,191.0,60.0,10.0,21.0,4.0,0.02,1.75,0.24,,
2830.0,Jammu & Kashmir,Kathua,Gangu Chak,75.2628,32.4014,2023.0,7.42,1480.0,0.0,783.0,87.0,0.64,90.0,13.0,0.0,610.0,156.0,54.0,126.0,16.0,-0.03,0.96,1.9,,
2831.0,Jammu & Kashmir,Kathua,Karol Krishna,75.2361,32.3958,2023.0,7.37,880.0,0.0,530.0,35.0,0.4,21.0,11.0,0.0,295.0,76.0,26.0,99.0,3.0,-0.03,0.43,5.36,,
2832.0,Jammu & Kashmir,Kathua,Kotepanu,75.3758,32.3458,2023.0,7.2,520.0,0.0,338.0,7.0,0.25,19.0,3.0,0.0,281.0,99.0,9.0,15.0,3.0,1.61,2.25,0.81,,
2833.0,Jammu & Kashmir,Kathua,Khukhial,75.4667,32.35,2023.0,6.96,800.0,0.0,431.0,35.0,0.26,41.0,5.0,0.43,347.0,101.0,23.0,28.0,46.0,0.5,3.75,0.95,,
2834.0,Jammu & Kashmir,Kathua,Nagri,75.4333,32.35,2023.0,7.05,490.0,0.0,288.0,12.0,0.28,29.0,3.0,0.0,251.0,81.0,12.0,17.0,3.0,4.17,4.83,0.15,,
2835.0,Jammu & Kashmir,Kathua,Sumwan,75.42,32.394,2023.0,7.24,530.0,0.0,314.0,8.0,0.27,18.0,9.0,0.0,280.0,100.0,7.0,10.0,3.0,-0.02,0.16,1.35,,
2836.0,Jammu & Kashmir,Kupwara,Kunel,74.2853,34.3322,2023.0,7.34,342.0,0.0,203.0,5.0,0.21,8.0,3.0,0.0,158.0,48.0,10.0,10.0,1.0,-0.03,0.11,0.03,,
2837.0,Jammu & Kashmir,Kupwara,Drugmulla,74.2869,34.5056,2023.0,7.15,496.0,0.0,264.0,17.0,0.11,15.0,13.0,0.0,231.0,77.0,9.0,14.0,2.0,-0.02,0.32,0.27,,
2838.0,Jammu & Kashmir,Kupwara,Halmathpora (Chota Mohalla),74.2364,34.5708,2023.0,6.9,332.0,0.0,193.0,13.0,0.24,6.0,3.0,0.0,153.0,50.0,7.0,11.0,1.0,0.0,0.89,0.23,,
2839.0,Jammu & Kashmir,Kupwara,Khanpora,74.2731,34.4386,2023.0,7.35,368.0,0.0,227.0,5.0,0.26,7.0,6.0,0.0,184.0,56.0,11.0,8.0,1.0,0.03,0.2,1.57,,
2840.0,Jammu & Kashmir,Kupwara,Panipora (Sagipora),74.3644,34.4122,2023.0,6.88,284.0,0.0,166.0,5.0,0.15,5.0,5.0,0.0,134.0,42.0,7.0,9.0,1.0,0.01,0.57,0.42,,
2841.0,Jammu & Kashmir,Kupwara,Mir Mohalla (Katyan Wali),74.3847,34.5444,2023.0,7.3,244.0,0.0,151.0,5.0,0.25,4.0,3.0,0.0,119.0,36.0,7.0,10.0,0.0,5.07,0.03,0.02,,
2842.0,Jammu & Kashmir,Kupwara,Palpora,74.3577,34.3411,2023.0,7.05,376.0,0.0,191.0,15.0,0.2,12.0,5.0,0.0,168.0,52.0,10.0,13.0,2.0,-0.01,2.3,0.34,,
2843.0,Jammu & Kashmir,Kupwara,Batpora Bala,74.0889,34.4944,2023.0,6.56,207.0,0.0,104.0,10.0,0.1,13.0,6.0,0.0,85.0,26.0,5.0,13.0,1.0,-0.02,0.29,0.04,,
2844.0,Jammu & Kashmir,Kupwara,Panzgam,74.0771,34.4834,2023.0,6.77,393.0,0.0,214.0,13.0,0.21,18.0,3.0,0.0,174.0,50.0,12.0,14.0,5.0,-0.02,0.33,0.14,,
2845.0,Jammu & Kashmir,Kupwara,Wasar Khoto,74.1061,34.5064,2023.0,6.74,274.0,0.0,140.0,15.0,0.09,8.0,4.0,0.0,129.0,42.0,6.0,10.0,2.0,-0.02,0.29,0.04,,
2847.0,Jammu & Kashmir,Kupwara,Magam,74.2328,34.4608,2023.0,7.24,367.0,0.0,233.0,5.0,0.17,5.0,3.0,0.8,169.0,48.0,12.0,17.0,0.0,0.48,20.03,0.02,,
2877.0,Jammu & Kashmir,Rajouri,Pokharni,74.1138,33.2714,2023.0,7.18,740.0,0.0,481.0,8.0,0.22,10.0,4.0,0.0,327.0,95.0,22.0,46.0,3.0,-0.03,0.29,1.45,,
2878.0,Jammu & Kashmir,Rajouri,Potha,74.3181,33.2812,2023.0,7.14,720.0,0.0,456.0,13.0,0.22,22.0,15.0,0.0,381.0,129.0,15.0,16.0,4.0,-0.04,0.1,1.13,,
2879.0,Jammu & Kashmir,Rajouri,Rumli Dara,74.2179,33.1226,2023.0,7.24,640.0,0.0,417.0,7.0,0.27,14.0,12.0,0.0,342.0,109.0,17.0,17.0,1.0,-0.04,0.05,0.48,,
2914.0,Jammu & Kashmir,Samba,Mahalshah Kalandrian,74.9425,32.5103,2023.0,7.26,1040.0,0.0,632.0,38.0,1.07,32.0,13.0,0.0,402.0,103.0,35.0,108.0,2.0,-0.02,0.52,7.55,,
2915.0,Jammu & Kashmir,Samba,Nandpur,74.8886,32.5181,2023.0,7.42,370.0,0.0,249.0,5.0,0.32,5.0,0.0,0.0,175.0,50.0,12.0,16.0,2.0,-0.03,0.66,2.69,,
2916.0,Jammu & Kashmir,Samba,Raghu Chak,75.2042,32.4861,2023.0,7.23,490.0,0.0,311.0,8.0,0.36,14.0,9.0,0.0,265.0,86.0,12.0,12.0,1.0,0.28,0.18,1.31,,
2917.0,Jammu & Kashmir,Samba,Bengular,75.0625,32.4944,2023.0,7.24,850.0,0.0,415.0,27.0,0.43,34.0,72.0,0.0,435.0,152.0,13.0,30.0,2.0,-0.03,0.3,0.64,,
2918.0,Jammu & Kashmir,Samba,Jasath,75.202,32.504,2023.0,6.54,730.0,0.0,323.0,45.0,0.28,33.0,61.0,0.0,350.0,104.0,22.0,30.0,5.0,-0.03,0.18,1.41,,
2919.0,Jammu & Kashmir,Samba,Pangdour,75.0722,32.5086,2023.0,7.61,580.0,0.0,336.0,7.0,0.22,13.0,34.0,0.0,310.0,110.0,9.0,14.0,1.0,0.04,0.09,0.55,,
2920.0,Jammu & Kashmir,Samba,Raiyan,75.125,32.5083,2023.0,7.4,430.0,0.0,281.0,5.0,0.36,10.0,9.0,0.0,225.0,78.0,7.0,13.0,1.0,-0.02,0.18,1.34,,
2921.0,Jammu & Kashmir,Samba,Sadoh,75.125,32.4708,2023.0,7.33,820.0,0.0,452.0,30.0,0.52,35.0,42.0,0.0,440.0,118.0,35.0,25.0,3.0,-0.03,0.31,1.15,,
2922.0,Jammu & Kashmir,Samba,Samba,75.1192,32.5575,2023.0,6.97,960.0,0.0,464.0,60.0,0.24,35.0,40.0,0.0,425.0,148.0,13.0,55.0,7.0,-0.01,0.84,0.4,,
2923.0,Jammu & Kashmir,Samba,Supwal,75.0667,32.5583,2023.0,7.2,800.0,0.0,469.0,25.0,0.35,21.0,30.0,0.0,412.0,133.0,20.0,28.0,2.0,-0.03,0.17,2.63,,
2924.0,Jammu & Kashmir,Samba,Painthi,75.1556,32.593,2023.0,7.0,400.0,0.0,232.0,10.0,0.22,20.0,9.0,0.0,215.0,78.0,5.0,8.0,2.0,0.01,0.35,0.44,,
2925.0,Jammu & Kashmir,Samba,Gudwal,75.0097,32.55,2023.0,7.07,890.0,0.0,438.0,68.0,0.27,31.0,6.0,0.0,372.0,125.0,15.0,47.0,18.0,0.89,1.48,0.34,,
2926.0,Jammu & Kashmir,Samba,Kainthpur,74.975,32.5875,2023.0,7.25,590.0,0.0,364.0,10.0,0.31,18.0,12.0,0.0,325.0,110.0,12.0,8.0,1.0,0.17,0.38,1.51,,
2927.0,Jammu & Kashmir,Udhampur,Kuperlah,75.1819,32.8503,2023.0,6.71,580.0,0.0,302.0,27.0,0.2,26.0,7.0,0.0,285.0,90.0,15.0,19.0,1.0,-0.03,0.51,1.4,,
2913.0,Jammu & Kashmir,Samba,Gho Rakawalan,74.9489,32.5517,2023.0,7.51,460.0,0.0,249.0,12.0,0.49,17.0,17.0,0.0,171.0,30.0,23.0,34.0,6.0,0.27,1.84,6.92,,
2928.0,Jammu & Kashmir,Udhampur,Ritti,75.1633,32.8417,2023.0,6.98,650.0,0.0,339.0,20.0,0.23,18.0,3.0,0.0,265.0,90.0,10.0,32.0,2.0,0.72,2.1,1.01,,
2930.0,Jammu & Kashmir,Udhampur,Sunal,75.2425,32.6794,2023.0,6.95,660.0,0.0,388.0,17.0,0.23,21.0,8.0,0.0,355.0,114.0,17.0,11.0,1.0,-0.03,0.17,2.36,,
2931.0,Jammu & Kashmir,Udhampur,Chhani Mansar,75.1644,32.6972,2023.0,7.07,660.0,0.0,425.0,10.0,0.26,13.0,3.0,0.0,340.0,116.0,12.0,21.0,1.0,-0.03,4.41,1.79,,
2932.0,Jammu & Kashmir,Udhampur,Manwall,75.15,32.7556,2023.0,6.67,800.0,0.0,419.0,42.0,0.25,28.0,14.0,0.0,410.0,144.0,12.0,21.0,2.0,-0.03,0.29,2.08,,
2933.0,Jammu & Kashmir,Udhampur,Salabra,75.175,32.7167,2023.0,6.85,580.0,0.0,376.0,7.0,0.21,15.0,5.0,0.0,305.0,98.0,15.0,13.0,1.0,-0.03,0.15,2.63,,
2934.0,Jammu & Kashmir,Udhampur,Dalsar,75.3125,32.8192,2023.0,6.96,770.0,0.0,505.0,15.0,0.34,18.0,3.0,0.0,330.0,104.0,17.0,65.0,2.0,0.14,0.6,2.1,,
2935.0,Jammu & Kashmir,Udhampur,Dehari,75.2728,32.7814,2023.0,6.96,790.0,0.0,394.0,50.0,0.26,47.0,13.0,0.0,335.0,104.0,18.0,60.0,2.0,-0.01,0.26,3.03,,
2936.0,Jammu & Kashmir,Udhampur,Jallow,75.2317,32.7958,2023.0,7.14,670.0,0.0,407.0,25.0,0.22,29.0,3.0,0.0,360.0,122.0,13.0,20.0,7.0,0.0,1.6,2.41,,
2937.0,Jammu & Kashmir,Udhampur,Ramnagar,75.31,32.8064,2023.0,6.37,420.0,0.0,234.0,20.0,0.13,16.0,5.0,0.22,205.0,66.0,10.0,17.0,3.0,-0.02,0.34,0.22,,
2938.0,Jammu & Kashmir,Udhampur,Dhanu Kannal,75.0072,32.9628,2023.0,6.91,630.0,0.0,429.0,5.0,0.16,9.0,3.0,0.0,360.0,118.0,16.0,9.0,1.0,-0.03,0.3,0.78,,
2939.0,Jammu & Kashmir,Udhampur,Badola,75.0347,32.9444,2023.0,7.05,610.0,0.0,313.0,25.0,0.15,20.0,36.0,0.0,320.0,116.0,7.0,10.0,2.0,-0.01,0.76,1.73,,
2940.0,Jammu & Kashmir,Udhampur,Battal Ballian,75.1256,32.8797,2023.0,6.77,740.0,0.0,233.0,55.0,0.27,79.0,42.0,0.0,300.0,88.0,19.0,43.0,2.0,-0.03,0.34,1.21,,
2941.0,Jammu & Kashmir,Udhampur,Birmah,75.1089,32.915,2023.0,6.8,560.0,0.0,560.0,17.0,0.18,19.0,3.0,0.0,285.0,102.0,7.0,16.0,3.0,-0.03,1.72,0.41,,
2942.0,Jammu & Kashmir,Udhampur,Eastern Mand,75.0239,32.8967,2023.0,6.73,650.0,0.0,374.0,22.0,0.17,22.0,3.0,0.0,325.0,102.0,17.0,20.0,3.0,-0.03,0.37,0.86,,
2943.0,Jammu & Kashmir,Udhampur,Garhi (Udh),75.0825,32.905,2023.0,6.97,860.0,0.0,454.0,37.0,0.27,41.0,24.0,0.0,410.0,128.0,22.0,30.0,2.0,-0.03,0.17,1.03,,
2929.0,Jammu & Kashmir,Udhampur,Talpad,75.1988,32.8595,2023.0,6.5,340.0,0.0,210.0,12.0,0.22,13.0,3.0,0.0,175.0,52.0,11.0,14.0,1.0,-0.03,0.23,0.19,,
2816.0,Jammu & Kashmir,Kathua,Khanpur,75.3561,32.425,2023.0,6.93,310.0,0.0,166.0,7.0,0.26,13.0,3.0,0.0,145.0,44.0,9.0,11.0,1.0,-0.02,0.16,0.64,,
2912.0,Jammu & Kashmir,Samba,Gho Brahmna,74.9541,32.556,2023.0,7.5,580.0,0.0,352.0,12.0,0.3,11.0,18.0,0.0,265.0,76.0,18.0,32.0,2.0,0.29,0.3,3.16,,
2910.0,Jammu & Kashmir,Samba,Sanoora,75.1778,32.4878,2023.0,7.01,420.0,0.0,268.0,7.0,0.26,14.0,3.0,0.0,225.0,72.0,11.0,12.0,3.0,-0.03,0.31,1.34,,
2880.0,Jammu & Kashmir,Rajouri,Seri,74.2873,33.0833,2023.0,7.18,1320.0,0.0,453.0,177.0,0.29,78.0,53.0,0.0,584.0,173.0,38.0,85.0,1.0,-0.04,0.17,3.84,,
2881.0,Jammu & Kashmir,Rajouri,Sial,74.3158,33.0729,2023.0,7.25,680.0,0.0,441.0,12.0,0.33,20.0,3.0,0.0,351.0,113.0,17.0,22.0,1.0,-0.01,0.35,2.7,,
2882.0,Jammu & Kashmir,Rajouri,Chittiar,74.2834,33.2867,2023.0,7.09,410.0,0.0,271.0,5.0,0.18,8.0,3.0,0.0,228.0,77.0,9.0,6.0,1.0,-0.04,0.3,0.38,,
2883.0,Jammu & Kashmir,Rajouri,Siot,74.3788,33.1128,2023.0,6.8,1000.0,0.0,505.0,56.0,0.27,34.0,40.0,0.0,515.0,173.0,21.0,27.0,3.0,-0.03,0.28,4.23,,
2884.0,Jammu & Kashmir,Rajouri,Ainpur,74.4465,33.0422,2023.0,7.11,450.0,0.0,288.0,10.0,0.22,14.0,4.0,0.0,230.0,76.0,10.0,16.0,0.0,-0.04,0.17,0.46,,
2885.0,Jammu & Kashmir,Rajouri,Baja Bain,74.4136,33.0544,2023.0,6.85,800.0,0.0,362.0,53.0,0.39,60.0,52.0,0.0,385.0,120.0,21.0,35.0,2.0,-0.04,0.23,4.07,,
2886.0,Jammu & Kashmir,Rajouri,Bakhar,74.4275,33.088,2023.0,7.13,690.0,0.0,454.0,10.0,0.22,20.0,10.0,0.0,380.0,134.0,11.0,9.0,1.0,-0.03,0.34,2.02,,
2887.0,Jammu & Kashmir,Rajouri,Banpari,74.4566,33.0367,2023.0,7.29,670.0,0.0,417.0,15.0,0.25,23.0,9.0,0.0,360.0,122.0,13.0,13.0,1.0,-0.04,0.18,1.03,,
2888.0,Jammu & Kashmir,Rajouri,Channi Parat,74.464,33.0873,2023.0,7.05,520.0,0.0,339.0,8.0,0.33,14.0,4.0,0.0,257.0,83.0,12.0,19.0,3.0,-0.04,0.34,3.34,,
2889.0,Jammu & Kashmir,Rajouri,Dhok Baniyar,74.4124,33.0322,2023.0,7.17,720.0,0.0,429.0,20.0,0.19,21.0,14.0,0.0,350.0,106.0,21.0,27.0,1.0,0.01,0.11,2.65,,
2890.0,Jammu & Kashmir,Rajouri,Kangri (Grid Station),74.3916,33.0605,2023.0,6.9,580.0,0.0,325.0,13.0,0.28,18.0,19.0,0.0,295.0,92.0,16.0,15.0,1.0,-0.04,0.14,1.94,,
2891.0,Jammu & Kashmir,Rajouri,Marchola,74.4784,33.0884,2023.0,7.25,780.0,0.0,505.0,28.0,0.2,19.0,0.0,0.0,421.0,145.0,15.0,23.0,2.0,0.03,0.21,2.47,,
2892.0,Jammu & Kashmir,Rajouri,Salote,74.5244,33.0501,2023.0,7.11,650.0,0.0,313.0,35.0,0.27,36.0,9.0,0.0,325.0,100.0,18.0,18.0,1.0,-0.04,0.5,1.49,,
2893.0,Jammu & Kashmir,Rajouri,Thanda Pani,74.4868,33.0673,2023.0,7.25,810.0,0.0,455.0,47.0,0.28,48.0,13.0,0.0,449.0,158.0,13.0,31.0,1.0,-0.04,0.15,1.83,,
2911.0,Jammu & Kashmir,Samba,Didyal,74.9583,32.4703,2023.0,7.21,580.0,0.0,325.0,18.0,0.36,16.0,33.0,0.0,266.0,89.0,11.0,33.0,1.0,-0.03,0.11,2.88,,
2894.0,Jammu & Kashmir,Rajouri,Thangrot,74.5883,33.1418,2023.0,7.33,730.0,0.0,510.0,12.0,0.23,17.0,11.0,0.0,424.0,117.0,32.0,10.0,2.0,-0.04,0.13,0.79,,
2896.0,Jammu & Kashmir,Samba,Bassi Kalan,74.9014,32.6372,2023.0,7.37,790.0,0.0,388.0,48.0,0.23,27.0,21.0,0.0,402.0,119.0,26.0,16.0,2.0,0.83,0.07,3.92,,
2897.0,Jammu & Kashmir,Samba,Patli,74.9458,32.6083,2023.0,7.58,1180.0,0.0,686.0,10.0,0.82,52.0,15.0,0.0,275.0,68.0,26.0,199.0,2.0,0.06,0.4,2.78,,
2898.0,Jammu & Kashmir,Samba,Naran,75.1542,32.5042,2023.0,7.2,620.0,0.0,397.0,10.0,0.34,12.0,12.0,0.0,325.0,92.0,22.0,25.0,2.0,0.2,0.25,2.15,,
2899.0,Jammu & Kashmir,Samba,Sagoon,75.0772,32.7472,2023.0,7.32,600.0,0.0,351.0,12.0,0.25,24.0,3.0,0.0,275.0,72.0,23.0,22.0,6.0,-0.03,0.18,8.02,,
2900.0,Jammu & Kashmir,Samba,Daboh,75.105,32.5858,2023.0,7.25,920.0,0.0,397.0,45.0,0.24,37.0,94.0,0.0,460.0,162.0,13.0,29.0,2.0,-0.03,0.26,2.66,,
2901.0,Jammu & Kashmir,Samba,Dhora,75.14,32.61,2023.0,7.05,860.0,0.0,427.0,30.0,0.3,40.0,56.0,0.0,420.0,148.0,12.0,21.0,24.0,0.64,0.48,1.14,,
2902.0,Jammu & Kashmir,Samba,Kamila,75.0653,32.6092,2023.0,7.13,530.0,0.0,300.0,15.0,0.23,20.0,3.0,0.0,241.0,85.0,7.0,18.0,11.0,-0.01,0.29,1.13,,
2903.0,Jammu & Kashmir,Samba,Mothian Kalan,75.063,32.623,2023.0,7.21,850.0,0.0,538.0,28.0,0.32,14.0,5.0,0.0,437.0,145.0,18.0,32.0,2.0,12.73,0.11,1.12,,
2904.0,Jammu & Kashmir,Samba,Nud,75.1478,32.6125,2023.0,7.15,860.0,0.0,372.0,55.0,0.39,58.0,28.0,0.0,395.0,138.0,12.0,40.0,7.0,-0.03,0.35,10.31,,
2905.0,Jammu & Kashmir,Samba,Maheen Charkan,74.9867,32.6497,2023.0,7.14,440.0,0.0,250.0,8.0,0.3,27.0,3.0,1.53,216.0,58.0,17.0,3.0,18.0,-0.03,3.17,0.07,,
2906.0,Jammu & Kashmir,Samba,Birpur,74.9517,32.6555,2023.0,7.05,610.0,0.0,350.0,15.0,0.26,19.0,20.0,0.0,322.0,119.0,6.0,13.0,1.0,-0.01,0.46,1.56,,
2907.0,Jammu & Kashmir,Samba,Nagrota Uttarbani,75.065,32.6239,2023.0,7.3,1010.0,0.0,469.0,53.0,0.43,49.0,74.0,0.0,487.0,155.0,24.0,35.0,22.0,-0.01,0.68,2.93,,
2908.0,Jammu & Kashmir,Samba,Uttarbani,75.0636,32.6478,2023.0,7.22,890.0,0.0,519.0,38.0,0.28,26.0,5.0,0.0,467.0,119.0,41.0,21.0,10.0,-0.03,0.58,1.92,,
2909.0,Jammu & Kashmir,Samba,Madun,75.161,32.471,2023.0,7.18,720.0,0.0,439.0,20.0,0.45,17.0,11.0,0.0,335.0,82.0,30.0,42.0,2.0,-0.02,0.32,11.6,,
2895.0,Jammu & Kashmir,Reasi,Talwara,74.8333,33.0917,2023.0,7.43,740.0,0.0,481.0,10.0,0.15,19.0,21.0,0.0,440.0,100.0,46.0,8.0,3.0,-0.03,0.25,0.54,,
2815.0,Jammu & Kashmir,Kathua,Jandi (New),75.2458,32.4625,2023.0,7.3,910.0,0.0,417.0,43.0,0.31,44.0,87.0,0.0,420.0,140.0,17.0,51.0,2.0,1.02,0.08,0.97,,
8388.0,Uttar Pradesh,Lalitpur,Balabehat,78.4114,24.3208,2023.0,7.82,571.0,0.0,305.0,21.0,0.59,7.0,26.0,0.0,220.0,52.0,22.0,43.0,0.0,0.16,0.0,4.01,,
2813.0,Jammu & Kashmir,Kathua,Dulme Chak,75.1833,32.4333,2023.0,7.16,510.0,0.0,336.0,5.0,0.26,7.0,3.0,0.22,260.0,74.0,18.0,19.0,2.0,0.05,0.22,2.05,,
2720.0,Jammu & Kashmir,Jammu,Tanda Sheeda,74.6988,32.9722,2023.0,7.12,500.0,0.0,340.0,7.0,0.17,9.0,8.0,0.0,283.0,81.0,19.0,6.0,2.0,-0.03,0.15,0.87,,
2721.0,Jammu & Kashmir,Jammu,Arnia Ii,74.7986,32.5203,2023.0,7.08,920.0,0.0,454.0,38.0,0.31,71.0,55.0,0.0,452.0,146.0,21.0,42.0,18.0,2.63,0.24,4.56,,
2722.0,Jammu & Kashmir,Jammu,Batera,74.7464,32.8485,2023.0,7.16,580.0,0.0,339.0,10.0,0.21,37.0,3.0,0.0,323.0,90.0,24.0,6.0,2.0,-0.01,0.63,0.86,,
2723.0,Jammu & Kashmir,Jammu,Dharam Khu,74.7633,32.86,2023.0,7.18,610.0,0.0,388.0,7.0,0.27,20.0,8.0,0.0,338.0,106.0,18.0,5.0,3.0,-0.03,0.48,1.02,,
2724.0,Jammu & Kashmir,Jammu,Garhi (Jammu),74.7656,32.7907,2023.0,7.07,1080.0,0.0,598.0,44.0,0.43,57.0,34.0,0.0,567.0,166.0,38.0,38.0,3.0,0.03,0.36,2.42,,
2725.0,Jammu & Kashmir,Jammu,Kangar,74.846,32.8401,2023.0,7.27,580.0,0.0,376.0,8.0,0.27,7.0,19.0,0.0,300.0,96.0,15.0,14.0,1.0,-0.01,0.19,0.37,,
2726.0,Jammu & Kashmir,Jammu,Khairi (Raipur),74.8575,32.8076,2023.0,6.58,590.0,0.0,296.0,18.0,0.46,27.0,25.0,0.0,290.0,86.0,18.0,14.0,1.0,-0.03,0.29,0.2,,
2727.0,Jammu & Kashmir,Jammu,Lower Barnai,74.7921,32.7626,2023.0,7.25,630.0,0.0,376.0,13.0,0.0,26.0,3.0,0.59,285.0,80.0,21.0,9.0,37.0,0.08,6.44,0.19,,
2728.0,Jammu & Kashmir,Jammu,Muthi,74.7997,32.7505,2023.0,6.86,760.0,0.0,364.0,43.0,0.28,77.0,3.0,0.0,365.0,88.0,35.0,31.0,2.0,-0.04,0.32,0.95,,
2729.0,Jammu & Kashmir,Jammu,Pata Khu,74.7716,32.84,2023.0,7.14,640.0,0.0,429.0,8.0,0.26,20.0,0.0,0.0,357.0,110.0,19.0,8.0,3.0,-0.04,0.43,1.19,,
2730.0,Jammu & Kashmir,Jammu,Shama Chak,74.7419,32.8282,2023.0,7.21,700.0,0.0,392.0,15.0,0.29,35.0,26.0,0.0,352.0,96.0,27.0,19.0,12.0,-0.04,0.41,1.56,,
2731.0,Jammu & Kashmir,Jammu,Sumah,74.6702,32.9573,2023.0,7.09,640.0,0.0,417.0,13.0,0.37,12.0,3.0,0.0,357.0,120.0,13.0,9.0,2.0,0.54,0.17,0.14,,
2732.0,Jammu & Kashmir,Jammu,Bhagwana Chak,74.5695,32.8561,2023.0,7.24,420.0,0.0,271.0,7.0,0.24,7.0,3.0,0.0,199.0,66.0,9.0,17.0,1.0,-0.03,0.19,0.57,,
2719.0,Jammu & Kashmir,Jammu,Leherian,74.6885,32.8693,2023.0,7.12,630.0,0.0,401.0,8.0,0.25,22.0,4.0,0.0,340.0,94.0,26.0,8.0,3.0,-0.02,2.49,0.78,,
2733.0,Jammu & Kashmir,Jammu,Devipura,74.6506,32.8556,2023.0,7.69,510.0,0.0,314.0,5.0,0.2,24.0,9.0,0.0,289.0,82.0,21.0,4.0,1.0,0.14,0.09,1.27,,
2735.0,Jammu & Kashmir,Jammu,Allah,74.8367,32.5175,2023.0,7.28,1910.0,0.0,895.0,118.0,0.41,171.0,94.0,1.0,608.0,150.0,56.0,111.0,248.0,-0.04,1.16,3.31,,
2736.0,Jammu & Kashmir,Jammu,Bishnah,74.857,32.608,2023.0,7.67,1650.0,0.0,791.0,86.0,1.3,83.0,42.0,0.0,352.0,70.0,43.0,82.0,315.0,0.01,0.48,4.57,,
2737.0,Jammu & Kashmir,Jammu,Khairi (Bishnah),74.9064,32.5853,2023.0,7.22,760.0,0.0,480.0,12.0,0.34,14.0,7.0,0.0,350.0,82.0,35.0,39.0,3.0,-0.03,0.5,7.93,,
2738.0,Jammu & Kashmir,Jammu,Kothey Saini,74.8817,32.5772,2023.0,6.98,860.0,0.0,419.0,37.0,0.49,44.0,43.0,0.0,385.0,104.0,30.0,48.0,3.0,-0.03,0.15,2.02,,
2739.0,Jammu & Kashmir,Jammu,Kotli Charkan,74.8342,32.6156,2023.0,7.31,970.0,0.0,497.0,68.0,0.61,77.0,5.0,0.0,508.0,124.0,47.0,34.0,18.0,0.11,0.24,1.09,,
2740.0,Jammu & Kashmir,Jammu,Laswara,74.8369,32.585,2023.0,7.51,510.0,0.0,276.0,20.0,0.27,45.0,6.0,0.0,271.0,90.0,11.0,15.0,3.0,-0.04,0.38,1.22,,
2741.0,Jammu & Kashmir,Jammu,Palli,74.8886,32.6269,2023.0,7.05,960.0,0.0,510.0,42.0,0.92,50.0,9.0,0.0,440.0,98.0,47.0,54.0,2.0,0.03,0.28,8.18,,
2742.0,Jammu & Kashmir,Jammu,Poal Ii,74.82,32.51,2023.0,7.55,500.0,0.0,362.0,5.0,0.45,6.0,4.0,0.0,201.0,47.0,21.0,50.0,2.0,-0.04,0.26,5.67,,
2743.0,Jammu & Kashmir,Jammu,Rehal,74.8761,32.5614,2023.0,7.39,600.0,0.0,376.0,7.0,0.47,17.0,3.0,0.0,265.0,54.0,32.0,35.0,2.0,-0.01,0.41,5.89,,
2744.0,Jammu & Kashmir,Jammu,Salehar Ii,74.8181,32.5603,2023.0,7.55,900.0,0.0,509.0,38.0,0.32,59.0,0.0,0.72,355.0,84.0,35.0,34.0,96.0,0.25,1.83,0.9,,
2745.0,Jammu & Kashmir,Jammu,Majua Laxmi,74.918,32.5552,2023.0,7.84,680.0,0.0,352.0,30.0,0.34,23.0,25.0,0.0,337.0,80.0,33.0,19.0,3.0,-0.03,0.3,3.53,,
2746.0,Jammu & Kashmir,Jammu,Upralakanhal,74.8833,32.6333,2023.0,8.04,600.0,0.0,350.0,18.0,0.62,25.0,17.0,0.0,186.0,46.0,17.0,79.0,1.0,-0.03,0.66,2.06,,
2747.0,Jammu & Kashmir,Jammu,Kot Kaswal,75.1083,32.7989,2023.0,6.81,760.0,0.0,468.0,20.0,0.27,27.0,16.0,0.0,415.0,138.0,17.0,18.0,1.0,-0.03,0.14,2.77,,
2734.0,Jammu & Kashmir,Jammu,Taryai,74.6134,32.8696,2023.0,6.81,410.0,0.0,245.0,13.0,0.22,9.0,14.0,0.0,201.0,64.0,10.0,16.0,1.0,-0.03,0.09,0.53,,
2718.0,Jammu & Kashmir,Jammu,Jourian,74.577,32.8331,2023.0,7.36,810.0,0.0,376.0,35.0,0.22,49.0,62.0,0.0,418.0,140.0,17.0,21.0,6.0,-0.01,0.2,1.74,,
2717.0,Jammu & Kashmir,Jammu,Gura (Akhnoor),74.708,32.8813,2023.0,7.13,1340.0,0.0,777.0,82.0,0.45,20.0,5.0,2.11,627.0,146.0,65.0,51.0,16.0,0.12,1.04,0.11,,
2716.0,Jammu & Kashmir,Jammu,Chowki Chora,74.6515,33.0224,2023.0,7.27,490.0,0.0,261.0,20.0,0.23,39.0,6.0,0.37,222.0,75.0,9.0,21.0,10.0,-0.04,2.55,1.29,,
7755.0,Uttar Pradesh,Banda,HBaaznadr PTuomwapr Odsf BBlhoaclkih Oanffjiocte.,80.7094,25.5545,2023.0,7.84,730.0,0.0,390.0,21.0,0.41,13.0,0.0,0.0,190.0,32.0,26.0,79.0,1.0,1.12,0.0,3.0,,
7756.0,Uttar Pradesh,Banda,Kaji Tola,80.7243,25.6456,2023.0,7.79,888.0,0.0,500.0,14.0,0.77,8.0,6.0,0.0,270.0,48.0,36.0,78.0,2.0,0.17,0.0,6.74,,
7757.0,Uttar Pradesh,Banda,Murwal,80.5604,25.517,2023.0,7.67,777.0,0.0,415.0,21.0,0.38,10.0,8.0,0.0,280.0,52.0,36.0,49.0,2.0,0.15,0.0,4.04,,
7758.0,Uttar Pradesh,Banda,Chamraha,80.1737,25.3857,2023.0,7.99,986.0,0.0,561.0,14.0,0.78,0.0,6.0,0.0,270.0,40.0,41.0,101.0,2.0,0.08,0.0,17.49,,
7759.0,Uttar Pradesh,Banda,Jaurahi,80.4317,25.4811,2023.0,8.02,1012.0,0.0,512.0,36.0,0.61,23.0,0.0,0.0,250.0,48.0,31.0,113.0,2.0,0.21,0.0,4.16,,
7760.0,Uttar Pradesh,Banda,Kahriya,80.3749,25.5787,2023.0,8.18,845.0,0.0,476.0,14.0,0.52,0.0,10.0,0.0,330.0,40.0,55.0,41.0,1.0,0.32,0.0,5.24,,
7761.0,Uttar Pradesh,Banda,Kanwara,80.3226,25.5132,2023.0,8.07,882.0,0.0,439.0,28.0,0.44,24.0,21.0,0.0,250.0,64.0,22.0,86.0,0.0,0.2,0.0,0.0,,
7762.0,Uttar Pradesh,Banda,Hand Pump Of Block Office,79.8944,25.4811,2023.0,7.61,1795.0,0.0,586.0,142.0,0.69,131.0,79.0,0.0,440.0,48.0,77.0,204.0,1.0,1.3,0.0,6.0,,
7764.0,Uttar Pradesh,Banda,Oran,80.7385,25.3715,2023.0,8.02,999.0,0.0,439.0,78.0,0.47,21.0,8.0,0.0,340.0,92.0,26.0,71.0,3.0,0.25,0.0,3.66,,
7765.0,Uttar Pradesh,Banda,Narauli,80.4436,25.8604,2023.0,7.84,1555.0,0.0,769.0,71.0,0.64,34.0,9.0,0.0,300.0,36.0,50.0,214.0,4.0,0.17,0.0,28.87,,
7766.0,Uttar Pradesh,Banda,Sindhan Kalan,80.4421,25.7794,2023.0,7.69,500.0,0.0,268.0,7.0,0.48,9.0,11.0,0.0,200.0,60.0,12.0,22.0,1.0,0.08,0.0,3.52,,
7767.0,Uttar Pradesh,Banda,Itarra,80.9911,25.4906,2023.0,7.64,841.0,0.0,403.0,50.0,0.52,10.0,8.0,0.0,200.0,48.0,19.0,102.0,0.0,0.17,0.0,3.68,,
2700.0,Jammu & Kashmir,Reasi,Aliyah,74.553,33.165,2023.0,7.35,720.0,0.0,522.0,7.0,0.22,12.0,7.0,0.22,424.0,146.0,15.0,7.0,1.0,-0.04,0.23,1.15,,
2701.0,Jammu & Kashmir,Reasi,Bhambla,74.5771,33.0519,2023.0,7.1,1230.0,0.0,638.0,99.0,0.28,54.0,6.0,0.0,556.0,194.0,17.0,88.0,2.0,-0.03,0.42,4.39,,
2702.0,Jammu & Kashmir,Reasi,Dadua,74.6397,33.0716,2023.0,7.42,690.0,0.0,443.0,20.0,0.2,16.0,8.0,0.0,379.0,128.0,15.0,13.0,1.0,-0.04,0.15,1.6,,
2703.0,Jammu & Kashmir,Reasi,Garan Jagir,74.6489,33.0709,2023.0,7.44,750.0,0.0,510.0,12.0,0.29,17.0,7.0,0.0,404.0,132.0,18.0,20.0,1.0,-0.04,0.14,3.68,,
2704.0,Jammu & Kashmir,Reasi,Nanora,74.6311,33.1281,2023.0,7.38,720.0,0.0,504.0,12.0,0.22,20.0,0.0,0.0,399.0,119.0,24.0,15.0,8.0,-0.04,0.65,1.9,,
2705.0,Jammu & Kashmir,Baramulla,Binner,74.3553,34.2319,2023.0,7.46,520.0,0.0,331.0,7.0,0.18,9.0,5.0,0.0,246.0,60.0,23.0,20.0,1.0,0.44,5.76,0.01,,
2706.0,Jammu & Kashmir,Baramulla,Jambazpora,74.3633,34.2192,2023.0,7.33,687.0,0.0,397.0,25.0,0.41,15.0,4.0,0.0,307.0,91.0,18.0,31.0,1.0,-0.01,0.83,0.51,,
2707.0,Jammu & Kashmir,Baramulla,Uplna,74.3975,34.2008,2023.0,7.31,1290.0,0.0,546.0,65.0,0.34,51.0,139.0,0.0,569.0,185.0,27.0,55.0,14.0,-0.02,0.54,1.79,,
2708.0,Jammu & Kashmir,Baramulla,Lolipora,74.5364,34.2164,2023.0,7.06,1655.0,0.0,419.0,274.0,0.33,126.0,25.0,0.0,663.0,199.0,41.0,109.0,5.0,-0.01,0.41,4.07,,
2709.0,Jammu & Kashmir,Baramulla,Hadipora,74.3908,34.2914,2023.0,6.75,826.0,0.0,196.0,112.0,0.16,48.0,37.0,0.0,318.0,96.0,19.0,43.0,2.0,-0.02,0.56,0.25,,
2710.0,Jammu & Kashmir,Baramulla,Mazbugh,74.4294,34.2781,2023.0,7.02,863.0,0.0,510.0,35.0,0.18,20.0,6.0,0.0,420.0,127.0,26.0,33.0,3.0,0.01,1.65,2.05,,
2711.0,Jammu & Kashmir,Baramulla,Said Pora,74.4631,34.3211,2023.0,7.03,468.0,0.0,231.0,28.0,0.1,19.0,4.0,0.0,220.0,64.0,15.0,13.0,1.0,-0.02,0.16,0.28,,
2712.0,Jammu & Kashmir,Baramulla,Bomai,74.4213,34.3564,2023.0,6.78,594.0,0.0,395.0,8.0,0.22,4.0,3.0,0.0,285.0,81.0,21.0,18.0,4.0,25.28,51.37,0.23,,
2713.0,Jammu & Kashmir,Baramulla,Badran,74.5764,34.0931,2023.0,7.13,346.0,0.0,210.0,8.0,0.16,9.0,3.0,0.0,171.0,54.0,9.0,8.0,1.0,1.84,0.13,0.17,,
2714.0,Jammu & Kashmir,Baramulla,Waripora,74.5611,34.0906,2023.0,7.6,652.0,0.0,389.0,28.0,0.36,11.0,3.0,0.0,322.0,112.0,11.0,15.0,2.0,6.59,0.39,1.12,,
2715.0,Jammu & Kashmir,Handwara,Hampora,74.3272,34.3564,2023.0,7.18,612.0,0.0,425.0,5.0,0.12,5.0,6.0,0.84,312.0,91.0,22.0,19.0,1.0,-0.03,6.87,0.01,,
2748.0,Jammu & Kashmir,Jammu,Kunihala,75.0333,32.8372,2023.0,7.14,760.0,0.0,392.0,45.0,0.3,46.0,3.0,0.0,325.0,102.0,17.0,46.0,2.0,-0.01,1.36,2.69,,
2749.0,Jammu & Kashmir,Jammu,Sidhra,74.8947,32.7597,2023.0,7.03,1000.0,0.0,462.0,37.0,0.26,60.0,79.0,0.0,510.0,146.0,35.0,27.0,2.0,0.02,0.46,0.74,,
2750.0,Jammu & Kashmir,Jammu,Badsoo,75.0186,32.8525,2023.0,7.06,550.0,0.0,300.0,15.0,0.31,23.0,21.0,0.0,270.0,92.0,10.0,14.0,2.0,-0.02,0.38,3.5,,
2751.0,Jammu & Kashmir,Jammu,Greater Kailash,74.9305,32.6861,2023.0,7.07,740.0,0.0,400.0,23.0,0.26,25.0,33.0,0.0,387.0,135.0,12.0,16.0,1.0,-0.01,0.45,0.65,,
2785.0,Jammu & Kashmir,Jammu,Bega,74.6681,32.6147,2023.0,7.29,550.0,0.0,350.0,8.0,0.5,31.0,11.0,0.0,312.0,98.0,16.0,8.0,1.0,0.48,0.18,1.12,,
2786.0,Jammu & Kashmir,Jammu,Bera,74.677,32.619,2023.0,7.51,530.0,0.0,337.0,8.0,0.59,27.0,3.0,0.0,281.0,72.0,24.0,18.0,2.0,1.02,0.13,2.67,,
2787.0,Jammu & Kashmir,Jammu,Nikowal,74.7056,32.5083,2023.0,7.7,970.0,0.0,613.0,45.0,0.56,33.0,9.0,0.0,422.0,72.0,58.0,93.0,4.0,-0.01,0.39,18.77,,
2788.0,Jammu & Kashmir,Jammu,Sei Khurd,74.7247,32.5075,2023.0,7.39,1050.0,0.0,598.0,49.0,0.45,60.0,76.0,0.0,467.0,134.0,32.0,78.0,21.0,-0.03,0.34,6.58,,
2789.0,Jammu & Kashmir,Jammu,Kalah,74.4484,32.9207,2023.0,7.27,910.0,0.0,505.0,40.0,0.63,44.0,54.0,0.0,443.0,138.0,27.0,48.0,2.0,0.0,0.55,4.5,,
2790.0,Jammu & Kashmir,Jammu,Baradow,74.4251,32.9093,2023.0,7.37,730.0,0.0,450.0,7.0,0.24,16.0,30.0,0.0,418.0,152.0,10.0,9.0,1.0,-0.01,0.13,0.96,,
2791.0,Jammu & Kashmir,Jammu,Jogwan,74.4418,32.9325,2023.0,7.17,690.0,0.0,401.0,12.0,0.28,20.0,32.0,0.0,378.0,134.0,11.0,10.0,1.0,-0.02,0.18,1.26,,
2792.0,Jammu & Kashmir,Jammu,Chatta,74.9344,32.693,2023.0,6.92,510.0,0.0,313.0,10.0,0.33,15.0,3.0,0.0,271.0,97.0,7.0,10.0,2.0,-0.03,0.43,0.95,,
2793.0,Jammu & Kashmir,Jammu,Satwari,74.8458,32.6889,2023.0,7.46,870.0,0.0,468.0,32.0,0.2,35.0,45.0,0.0,460.0,128.0,34.0,28.0,2.0,-0.04,0.17,1.84,,
2794.0,Jammu & Kashmir,Jammu,Suchetgarh Ii,74.6756,32.5675,2023.0,7.69,1180.0,0.0,754.0,38.0,1.21,61.0,5.0,0.0,492.0,68.0,78.0,127.0,4.0,-0.04,2.68,9.14,,
2795.0,Jammu & Kashmir,Kathua,Bhagwal,75.3667,32.45,2023.0,6.84,360.0,0.0,224.0,8.0,0.25,11.0,3.0,0.0,185.0,58.0,10.0,11.0,2.0,0.06,0.11,0.39,,
2796.0,Jammu & Kashmir,Kathua,Patiari,75.4417,32.3958,2023.0,6.7,300.0,0.0,142.0,8.0,0.21,21.0,10.0,0.0,145.0,48.0,6.0,7.0,1.0,0.59,0.07,0.06,,
2797.0,Jammu & Kashmir,Kathua,Billawar,75.6083,32.6131,2023.0,7.0,870.0,0.0,505.0,40.0,0.32,30.0,5.0,0.48,415.0,142.0,15.0,41.0,15.0,-0.03,2.6,1.32,,
2798.0,Jammu & Kashmir,Kathua,Lakri,75.4153,32.6561,2023.0,7.01,710.0,0.0,388.0,35.0,0.2,26.0,3.0,0.0,330.0,106.0,16.0,32.0,7.0,-0.01,0.41,2.28,,
2799.0,Jammu & Kashmir,Kathua,Mandli,75.5083,32.6356,2023.0,6.86,730.0,0.0,431.0,22.0,0.29,28.0,3.0,0.0,335.0,104.0,18.0,36.0,11.0,-0.03,0.43,2.09,,
2800.0,Jammu & Kashmir,Kathua,Nagrota?Gujroo,75.3939,32.6464,2023.0,6.82,1000.0,0.0,456.0,77.0,0.29,47.0,29.0,0.0,395.0,126.0,19.0,77.0,9.0,-0.02,0.29,1.21,,
2801.0,Jammu & Kashmir,Kathua,Pallan,75.5658,32.5564,2023.0,6.32,340.0,0.0,185.0,15.0,0.17,19.0,3.0,0.0,165.0,52.0,9.0,13.0,1.0,-0.03,0.15,0.19,,
2802.0,Jammu & Kashmir,Kathua,Phinter,75.5444,32.5828,2023.0,6.24,440.0,0.0,197.0,30.0,0.2,21.0,13.0,0.0,205.0,64.0,11.0,16.0,3.0,-0.03,0.19,0.22,,
2803.0,Jammu & Kashmir,Kathua,Ramkot,75.3361,32.6417,2023.0,6.86,790.0,0.0,505.0,15.0,0.24,17.0,3.0,0.0,405.0,126.0,22.0,22.0,7.0,-0.03,0.79,2.61,,
2804.0,Jammu & Kashmir,Kathua,Lokli,75.2733,32.5442,2023.0,6.65,280.0,0.0,156.0,8.0,0.17,13.0,12.0,0.0,145.0,50.0,5.0,4.0,1.0,-0.03,0.19,0.03,,
2805.0,Jammu & Kashmir,Kathua,Nauni,75.3019,32.5581,2023.0,6.9,640.0,0.0,392.0,15.0,0.28,22.0,6.0,0.0,345.0,114.0,15.0,13.0,2.0,-0.03,0.23,3.18,,
2806.0,Jammu & Kashmir,Kathua,Patyari Ii,75.265,32.547,2023.0,7.22,770.0,0.0,467.0,25.0,0.27,22.0,3.0,0.0,395.0,130.0,17.0,20.0,2.0,-0.02,1.23,2.09,,
2807.0,Jammu & Kashmir,Kathua,Saida,75.293,32.551,2023.0,6.92,450.0,0.0,261.0,10.0,0.25,19.0,6.0,0.0,240.0,82.0,9.0,8.0,3.0,-0.03,0.43,1.07,,
2808.0,Jammu & Kashmir,Kathua,Chakara,75.259,32.418,2023.0,7.33,300.0,0.0,194.0,5.0,0.25,7.0,3.0,0.0,145.0,48.0,6.0,15.0,1.0,-0.04,0.0,0.0,,
2809.0,Jammu & Kashmir,Kathua,Chakhariya,75.3667,32.3889,2023.0,7.14,580.0,0.0,375.0,10.0,0.16,13.0,11.0,0.0,322.0,115.0,9.0,14.0,5.0,0.05,0.16,1.26,,
2810.0,Jammu & Kashmir,Kathua,Chan Khatrian,75.2458,32.4875,2023.0,7.05,370.0,0.0,205.0,10.0,0.18,12.0,12.0,0.0,185.0,62.0,7.0,12.0,2.0,-0.01,0.2,0.86,,
2811.0,Jammu & Kashmir,Kathua,Chanranga,75.3306,32.4833,2023.0,7.06,370.0,0.0,218.0,8.0,0.15,12.0,4.0,0.0,160.0,52.0,7.0,17.0,1.0,1.04,0.05,0.16,,
2812.0,Jammu & Kashmir,Kathua,Chapki Kalan,75.3147,32.4472,2023.0,6.54,270.0,0.0,166.0,5.0,0.2,11.0,9.0,0.0,140.0,46.0,6.0,9.0,1.0,-0.03,0.21,0.2,,
2944.0,Jammu & Kashmir,Udhampur,Jhakkar,75.1302,32.9265,2023.0,6.5,310.0,0.0,184.0,7.0,0.24,12.0,3.0,0.0,155.0,52.0,6.0,7.0,1.0,-0.02,0.2,0.06,,
2784.0,Jammu & Kashmir,Jammu,Agre Chak,74.7158,32.6225,2023.0,7.37,690.0,0.0,350.0,28.0,0.37,56.0,16.0,0.0,347.0,102.0,21.0,25.0,2.0,-0.02,0.57,2.28,,
2814.0,Jammu & Kashmir,Kathua,Feruchak,75.274,32.468,2023.0,7.04,580.0,0.0,367.0,13.0,0.32,16.0,3.0,0.0,300.0,100.0,12.0,17.0,2.0,-0.01,0.23,1.77,,
2783.0,Jammu & Kashmir,Jammu,Sohanjana,74.7431,32.6972,2023.0,7.33,1040.0,0.0,601.0,43.0,0.25,64.0,10.0,0.0,497.0,146.0,32.0,32.0,63.0,0.32,1.41,2.84,,
2781.0,Jammu & Kashmir,Jammu,Lalyal,74.7739,32.6644,2023.0,7.21,770.0,0.0,509.0,15.0,0.27,28.0,4.0,0.0,397.0,90.0,11.0,20.0,25.0,-0.04,0.21,2.3,,
2752.0,Jammu & Kashmir,Jammu,Kah Pahuta,75.0417,32.8344,2023.0,6.9,640.0,0.0,325.0,32.0,0.24,29.0,15.0,0.0,305.0,96.0,16.0,25.0,1.0,-0.03,0.16,2.37,,
2753.0,Jammu & Kashmir,Jammu,Kaluchak,74.892,32.657,2023.0,7.07,530.0,0.0,325.0,10.0,0.27,9.0,14.0,0.0,261.0,79.0,16.0,17.0,2.0,-0.03,0.16,1.02,,
2754.0,Jammu & Kashmir,Jammu,Katcha Pind (Dansal),74.9953,32.8656,2023.0,6.9,890.0,0.0,497.0,37.0,0.37,45.0,5.0,0.0,450.0,140.0,24.0,34.0,2.0,-0.03,0.32,1.94,,
2755.0,Jammu & Kashmir,Jammu,Rangoora,74.8964,32.7506,2023.0,7.12,700.0,0.0,351.0,17.0,0.21,28.0,36.0,0.0,345.0,100.0,23.0,13.0,2.0,-0.02,0.48,0.7,,
2756.0,Jammu & Kashmir,Jammu,Surinsar,75.0431,32.7672,2023.0,7.68,940.0,0.0,598.0,22.0,0.49,45.0,7.0,0.0,440.0,74.0,62.0,68.0,6.0,-0.04,5.68,17.81,,
2757.0,Jammu & Kashmir,Jammu,Trikuta Nagar,74.88,32.7116,2023.0,7.12,770.0,0.0,376.0,32.0,0.35,29.0,43.0,0.0,360.0,110.0,21.0,29.0,6.0,-0.01,0.19,3.07,,
2758.0,Jammu & Kashmir,Jammu,Bakore,74.562,32.8062,2023.0,7.21,470.0,0.0,284.0,10.0,0.29,24.0,3.0,0.0,259.0,86.0,11.0,8.0,1.0,5.11,4.43,0.03,,
2759.0,Jammu & Kashmir,Jammu,Dhanpur,74.5402,32.8026,2023.0,7.57,610.0,0.0,376.0,7.0,0.13,30.0,13.0,0.0,348.0,122.0,11.0,8.0,1.0,0.96,0.08,5.89,,
2760.0,Jammu & Kashmir,Jammu,Gigrial,74.4818,32.7961,2023.0,7.25,1270.0,0.0,585.0,54.0,0.27,90.0,54.0,0.0,478.0,148.0,27.0,42.0,114.0,-0.04,2.58,4.68,,
2761.0,Jammu & Kashmir,Jammu,Hamirpur Sidhar,74.5256,32.7765,2023.0,7.2,1650.0,0.0,610.0,87.0,0.28,176.0,181.0,0.0,756.0,227.0,46.0,83.0,37.0,-0.04,0.63,10.5,,
2762.0,Jammu & Kashmir,Jammu,Kachrial,74.4385,32.8657,2023.0,7.36,600.0,0.0,376.0,10.0,0.22,21.0,3.0,0.0,313.0,110.0,10.0,6.0,22.0,-0.03,0.54,0.98,,
2763.0,Jammu & Kashmir,Jammu,Khour,74.5173,32.8294,2023.0,7.08,720.0,0.0,413.0,10.0,0.14,33.0,22.0,0.0,390.0,140.0,10.0,11.0,1.0,0.8,0.26,3.93,,
2764.0,Jammu & Kashmir,Jammu,Palatan,74.4486,32.837,2023.0,7.49,560.0,0.0,313.0,10.0,0.16,34.0,8.0,0.0,286.0,96.0,11.0,13.0,1.0,1.28,0.2,1.55,,
2765.0,Jammu & Kashmir,Jammu,Pangli Colony,74.5213,32.789,2023.0,7.48,530.0,0.0,350.0,8.0,0.24,12.0,3.0,0.0,283.0,100.0,7.0,6.0,8.0,0.06,1.02,1.05,,
2766.0,Jammu & Kashmir,Jammu,Senth,74.5099,32.7765,2023.0,7.84,1260.0,0.0,638.0,53.0,0.0,125.0,5.0,0.43,432.0,110.0,38.0,69.0,129.0,-0.01,7.45,0.94,,
2767.0,Jammu & Kashmir,Jammu,Gajansoo,74.7107,32.761,2023.0,7.16,810.0,0.0,456.0,30.0,0.39,46.0,5.0,0.0,398.0,116.0,27.0,34.0,5.0,0.07,4.83,2.34,,
2768.0,Jammu & Kashmir,Jammu,Gho Manhasan (Talab Tillo),74.7396,32.7229,2023.0,7.21,990.0,0.0,555.0,47.0,0.48,52.0,5.0,0.0,507.0,126.0,47.0,39.0,2.0,0.34,0.36,11.12,,
2769.0,Jammu & Kashmir,Jammu,Jhiri,74.733,32.8255,2023.0,7.3,540.0,0.0,327.0,10.0,0.2,27.0,10.0,0.0,294.0,82.0,22.0,8.0,5.0,-0.04,0.69,1.2,,
2770.0,Jammu & Kashmir,Jammu,Marh,74.7457,32.7764,2023.0,6.88,910.0,0.0,456.0,45.0,0.35,74.0,10.0,0.0,475.0,132.0,35.0,28.0,3.0,-0.03,0.14,3.03,,
2771.0,Jammu & Kashmir,Jammu,Nagbani,74.7628,32.762,2023.0,7.51,1090.0,0.0,530.0,30.0,0.99,137.0,32.0,0.0,450.0,100.0,49.0,97.0,10.0,-0.03,3.07,7.51,,
2772.0,Jammu & Kashmir,Jammu,Patyale Chak,74.776,32.7625,2023.0,7.49,950.0,0.0,601.0,25.0,1.06,51.0,5.0,0.0,427.0,80.0,55.0,78.0,3.0,0.01,1.89,3.1,,
2773.0,Jammu & Kashmir,Jammu,Miran Sahib,74.7947,32.6458,2023.0,7.45,820.0,0.0,478.0,30.0,0.35,43.0,47.0,0.0,447.0,130.0,29.0,39.0,2.0,-0.04,0.19,0.5,,
2774.0,Jammu & Kashmir,Jammu,Khanpur (Nagrota),74.8922,32.7906,2023.0,7.3,620.0,0.0,401.0,7.0,0.16,6.0,3.0,0.0,260.0,72.0,19.0,38.0,3.0,-0.03,0.98,1.82,,
2775.0,Jammu & Kashmir,Jammu,Nagrota,74.9207,32.804,2023.0,6.87,800.0,0.0,431.0,30.0,0.26,44.0,27.0,0.0,400.0,136.0,15.0,30.0,4.0,-0.03,0.51,2.71,,
2776.0,Jammu & Kashmir,Jammu,Jagati,74.8958,32.8056,2023.0,6.94,430.0,0.0,265.0,10.0,0.23,17.0,3.0,0.0,240.0,78.0,11.0,7.0,2.0,-0.03,0.19,5.32,,
2777.0,Jammu & Kashmir,Jammu,Sugetar,74.9583,32.8792,2023.0,6.94,680.0,0.0,413.0,22.0,0.34,20.0,5.0,0.0,295.0,98.0,12.0,49.0,2.0,-0.03,0.24,3.35,,
2778.0,Jammu & Kashmir,Jammu,Upper Ban,74.9383,32.8292,2023.0,6.6,230.0,0.0,148.0,5.0,0.24,8.0,3.0,0.22,125.0,44.0,4.0,4.0,1.0,-0.02,1.32,0.05,,
2779.0,Jammu & Kashmir,Jammu,Hamirpur Kohna,74.5497,32.7667,2023.0,7.3,970.0,0.0,505.0,20.0,0.34,66.0,55.0,0.0,478.0,140.0,32.0,17.0,43.0,1.06,2.09,15.0,,
2780.0,Jammu & Kashmir,Jammu,Sajwal,74.593,32.7923,2023.0,7.39,650.0,0.0,405.0,5.0,0.46,46.0,0.0,0.0,357.0,102.0,24.0,9.0,9.0,2.08,1.57,3.12,,
2782.0,Jammu & Kashmir,Jammu,Makwal,74.7169,32.6933,2023.0,7.6,1330.0,0.0,638.0,76.0,0.33,215.0,0.0,0.0,648.0,142.0,71.0,87.0,42.0,-0.03,4.13,1.52,,
2945.0,Jammu & Kashmir,Udhampur,Kotli Pain,75.0914,32.9089,2023.0,6.75,510.0,0.0,313.0,10.0,0.3,23.0,5.0,0.0,275.0,88.0,13.0,9.0,1.0,-0.03,0.13,1.98,,
2947.0,Jammu & Kashmir,Udhampur,Phangyal,75.1353,32.8956,2023.0,6.09,380.0,0.0,129.0,32.0,0.16,18.0,15.0,0.0,155.0,40.0,13.0,13.0,1.0,0.09,0.14,0.04,,
7754.0,Uttar Pradesh,Balrampur,"Sugauwa More, 4 Km From Rehar",83.3074,27.1722,2023.0,7.49,474.0,0.0,244.0,28.0,0.31,9.0,0.0,0.0,225.0,68.0,13.0,12.0,3.0,0.0,0.0,0.0,,
7940.0,Uttar Pradesh,Etawah,Takpura,79.1874,26.8974,2023.0,8.03,464.0,0.0,268.0,7.0,0.43,19.0,0.0,0.0,220.0,36.0,32.0,15.0,2.0,0.44,0.0,17.67,,
7941.0,Uttar Pradesh,Etawah,Dhakpura,79.311,26.7771,2023.0,7.56,1287.0,0.0,500.0,121.0,0.51,47.0,5.0,0.0,330.0,60.0,44.0,137.0,11.0,1.67,0.0,20.2,,
7942.0,Uttar Pradesh,Etawah,Hand Pump Of Block Office,79.2133,26.7362,2023.0,7.82,1504.0,0.0,586.0,149.0,0.74,28.0,56.0,0.0,495.0,44.0,94.0,136.0,5.0,0.29,0.0,43.0,,
7945.0,Uttar Pradesh,Etawah,Hand Pump Of Block Office Adjacent,79.2339,26.6205,2023.0,7.9,672.0,0.0,366.0,14.0,0.5,39.0,10.0,0.0,300.0,44.0,46.0,28.0,3.0,0.18,0.0,12.0,,
7946.0,Uttar Pradesh,Etawah,ATot ESnhtirvaanlaceya O &f QBuloacrkte Orsf f.ice Gate,78.9604,26.9565,2023.0,7.78,789.0,0.0,439.0,14.0,0.26,41.0,0.0,0.0,280.0,64.0,29.0,67.0,5.0,2.49,0.0,11.0,,
7948.0,Uttar Pradesh,Faizabad / Ayodhya,Block Offc.,81.7692,26.5898,2023.0,7.91,597.0,0.0,329.0,14.0,0.98,8.0,0.0,0.0,240.0,36.0,36.0,24.0,4.0,0.84,0.0,7.0,,
7949.0,Uttar Pradesh,Faizabad / Ayodhya,Near Community Health Center,82.1388,26.5949,2023.0,8.02,672.0,0.0,354.0,14.0,0.64,18.0,0.0,0.0,255.0,60.0,25.0,32.0,4.0,1.35,18.0,0.0,,
7950.0,Uttar Pradesh,Faizabad / Ayodhya,Near Palu St.,82.0204,26.5545,2023.0,8.03,378.0,0.0,195.0,14.0,0.47,6.0,0.0,0.0,160.0,40.0,14.0,12.0,2.0,0.35,4.0,0.0,,
7951.0,Uttar Pradesh,Faizabad / Ayodhya,Near Tri Junction,82.1403,26.7337,2023.0,8.07,315.0,0.0,159.0,7.0,0.69,20.0,0.0,0.0,150.0,40.0,12.0,2.0,3.0,0.54,2.0,0.0,,
7953.0,Uttar Pradesh,Faizabad / Ayodhya,Located Just Outside Thana,82.3326,26.6451,2023.0,7.78,490.0,0.0,256.0,7.0,0.53,21.0,0.0,0.0,220.0,52.0,22.0,9.0,4.0,2.83,4.0,0.0,,
7955.0,Uttar Pradesh,Faizabad / Ayodhya,LOof cMatielkdip Nurear Rajkiya Ayurvedic,82.2665,26.7023,2023.0,7.86,671.0,0.0,354.0,14.0,0.29,10.0,18.0,0.0,280.0,56.0,34.0,24.0,2.0,0.08,0.0,3.0,,
7956.0,Uttar Pradesh,Faizabad / Ayodhya,RCuhdikaituslai lIynatercollg,81.755,26.7805,2023.0,7.88,640.0,0.0,329.0,21.0,0.55,16.0,0.0,0.0,280.0,56.0,34.0,15.0,4.0,1.01,4.0,3.0,,
7957.0,Uttar Pradesh,Faizabad / Ayodhya,Located Just Below Sohal Over Bridge,81.9908,26.7358,2023.0,7.74,664.0,0.0,342.0,21.0,0.46,12.0,0.0,0.0,300.0,52.0,41.0,12.0,4.0,0.17,3.0,5.0,,
7958.0,Uttar Pradesh,Faizabad / Ayodhya,Infront Of Rajput Minirice Mill,82.2424,26.55,2023.0,7.73,799.0,0.0,384.0,21.0,0.2,44.0,7.0,0.0,290.0,72.0,26.0,48.0,3.0,0.18,1.0,0.0,,
7968.0,Uttar Pradesh,Fatehpur,Hand Pump Of Block Office,81.1028,25.7698,2023.0,7.99,2017.0,0.0,695.0,249.0,0.7,69.0,18.0,0.0,590.0,112.0,74.0,185.0,9.0,0.51,0.0,21.0,,
7969.0,Uttar Pradesh,Fatehpur,Dhana,80.3208,25.9115,2023.0,7.64,920.0,0.0,519.0,21.0,0.34,0.0,0.0,0.0,260.0,44.0,36.0,89.0,3.0,20.33,0.0,4.89,,
7971.0,Uttar Pradesh,Fatehpur,Darauli,80.7497,25.7822,2023.0,7.82,991.0,0.0,512.0,21.0,0.98,19.0,27.0,0.0,320.0,40.0,53.0,77.0,5.0,0.33,0.0,28.51,,
7973.0,Uttar Pradesh,Fatehpur,Shankarpur,80.6276,25.767,2023.0,7.94,780.0,0.0,439.0,7.0,0.59,10.0,8.0,0.0,290.0,48.0,41.0,43.0,3.0,0.44,0.0,7.71,,
7975.0,Uttar Pradesh,Fatehpur,Lohari,81.0263,26.0102,2023.0,7.82,686.0,0.0,305.0,36.0,0.44,26.0,20.0,0.0,230.0,60.0,19.0,49.0,4.0,0.11,1.39,13.51,,
7976.0,Uttar Pradesh,Fatehpur,Block Office,81.2289,25.5393,2023.0,7.61,1209.0,0.0,488.0,71.0,0.52,75.0,23.0,0.0,390.0,72.0,50.0,94.0,4.0,0.18,0.0,10.0,,
7954.0,Uttar Pradesh,Faizabad / Ayodhya,LMoachaateradj gIna nCjompound Of Observers,81.9429,26.6278,2023.0,7.67,995.0,0.0,488.0,36.0,0.31,25.0,20.0,0.0,380.0,46.0,64.0,50.0,4.0,0.13,0.0,8.0,,
7938.0,Uttar Pradesh,Etawah,Kaneshighar,79.0562,26.6298,2023.0,7.36,3397.0,0.0,549.0,411.0,0.16,356.0,500.0,0.0,1061.0,160.0,161.0,340.0,9.0,1.51,1.18,21.68,,
7937.0,Uttar Pradesh,Etawah,Etawah City (Anand Nagar),79.0346,26.7702,2023.0,7.74,1012.0,0.0,488.0,50.0,0.31,28.0,49.0,0.0,340.0,64.0,44.0,93.0,4.0,0.3,0.0,20.17,,
7936.0,Uttar Pradesh,Etawah,-----Do-----,78.9572,26.7191,2023.0,7.79,726.0,0.0,415.0,28.0,0.46,0.0,21.0,0.0,330.0,48.0,51.0,26.0,3.0,0.0,0.0,7.0,,
7899.0,Uttar Pradesh,Chitrakoot,B(Koaoldchhiaha),81.0182,25.2712,2023.0,7.82,784.0,0.0,439.0,14.0,0.64,0.0,0.0,0.0,310.0,44.0,48.0,37.0,0.0,0.58,0.0,4.17,,
7900.0,Uttar Pradesh,Chitrakoot,Lokhari,81.2533,25.1916,2023.0,7.94,666.0,0.0,342.0,21.0,0.47,6.0,14.0,0.0,180.0,52.0,12.0,70.0,0.0,0.67,0.0,0.0,,
7901.0,Uttar Pradesh,Chitrakoot,Rajapur,81.1488,25.3822,2023.0,8.06,1386.0,0.0,622.0,99.0,0.5,22.0,15.0,0.0,480.0,80.0,67.0,93.0,2.0,0.0,0.0,10.65,,
7902.0,Uttar Pradesh,Chitrakoot,Block Office,81.2361,25.2469,2023.0,7.96,1595.0,0.0,476.0,227.0,0.51,36.0,40.0,0.0,610.0,108.0,82.0,76.0,2.0,0.5,0.0,9.0,,
7906.0,Uttar Pradesh,Deoria,Block Office,83.7358,26.5558,2023.0,7.81,532.0,0.0,183.0,43.0,0.11,40.0,0.0,0.0,200.0,52.0,17.0,27.0,6.0,0.13,3.0,0.0,,
7910.0,Uttar Pradesh,Deoria,Bahadurpur,83.8514,26.3765,2023.0,7.92,500.0,0.0,268.0,14.0,0.4,0.0,0.0,0.0,220.0,48.0,24.0,11.0,5.0,0.33,1.57,0.0,,
7911.0,Uttar Pradesh,Deoria,Bahaur Chauraha (Near R B,83.7976,26.3703,2023.0,7.78,572.0,0.0,268.0,28.0,0.12,16.0,0.0,0.0,220.0,52.0,22.0,25.0,8.0,0.24,3.13,0.0,,
7912.0,Uttar Pradesh,Deoria,"BHlaorcdkw Oarfefi,c Oepposite Fertilizer Shop)",83.7608,26.3711,2023.0,7.82,889.0,0.0,317.0,85.0,0.25,25.0,0.0,0.0,310.0,60.0,38.0,52.0,6.0,7.1,0.0,31.0,,
7913.0,Uttar Pradesh,Deoria,"Garer Chak, Near House",83.7876,26.399,2023.0,8.12,549.0,0.0,305.0,14.0,0.21,0.0,0.0,0.0,190.0,68.0,5.0,35.0,3.0,1.3,29.9,0.0,,
7914.0,Uttar Pradesh,Deoria,"IOnf FSrhonivtn Oatfh N Cahyraau rPaestiraol Pump,",83.7493,26.3291,2023.0,8.25,391.0,0.0,220.0,7.0,0.32,0.0,0.0,0.0,160.0,48.0,10.0,14.0,3.0,0.0,2.38,0.0,,
7915.0,Uttar Pradesh,Deoria,LKaagruraa nBaa zCahra uraha,83.7179,26.383,2023.0,7.72,644.0,0.0,329.0,21.0,0.22,12.0,0.0,0.0,220.0,48.0,24.0,42.0,7.0,0.0,0.0,0.0,,
7916.0,Uttar Pradesh,Deoria,B(Olonc Rk uOdfrfiacpeur To Bhaluwani),83.4512,26.3514,2023.0,8.09,580.0,0.0,305.0,14.0,0.57,0.0,0.0,0.0,180.0,36.0,22.0,47.0,3.0,2.2,0.0,0.0,,
7929.0,Uttar Pradesh,Etah,Block Office,78.3063,27.4798,2023.0,8.06,870.0,0.0,458.0,50.0,0.43,28.0,0.0,0.0,245.0,52.0,28.0,91.0,6.0,0.48,0.0,30.0,,
7977.0,Uttar Pradesh,Fatehpur,Chakiwa,81.0231,25.8929,2023.0,7.82,1196.0,0.0,622.0,21.0,0.57,47.0,6.0,0.0,360.0,28.0,70.0,103.0,5.0,0.39,0.0,24.03,,
7978.0,Uttar Pradesh,Fatehpur,Dharampur,80.9875,25.7851,2023.0,7.72,841.0,0.0,439.0,28.0,0.84,9.0,9.0,0.0,320.0,44.0,50.0,43.0,5.0,0.45,1.26,14.18,,
7979.0,Uttar Pradesh,Fatehpur,B Sloacnkto Office,81.1276,25.8653,2023.0,7.57,943.0,0.0,427.0,50.0,0.84,23.0,22.0,0.0,380.0,64.0,53.0,21.0,33.0,0.32,0.0,19.0,,
7980.0,Uttar Pradesh,Fatehpur,Bindki,80.5806,26.0298,2023.0,7.56,1499.0,0.0,573.0,78.0,0.43,54.0,145.0,0.0,460.0,72.0,67.0,132.0,3.0,0.51,0.0,32.15,,
8024.0,Uttar Pradesh,Ghaziabad,Rohtash Singh,77.3859,28.6871,2023.0,8.05,1665.0,0.0,415.0,326.0,1.2,35.0,5.0,0.0,125.0,24.0,16.0,346.0,6.0,0.16,0.0,15.86,,
8038.0,Uttar Pradesh,Ghaziabad,Sapnawat Prachin Nageshwar Mandir,77.7285,28.6273,2023.0,7.79,895.0,0.0,476.0,21.0,1.2,43.0,14.0,0.0,230.0,22.0,43.0,120.0,5.0,0.06,0.0,12.27,,
8039.0,Uttar Pradesh,Ghaziabad,In Block Office,77.2894,28.7472,2023.0,7.99,2125.0,0.0,439.0,383.0,0.94,136.0,28.0,0.0,260.0,64.0,24.0,385.0,23.0,0.15,0.0,5.0,,
8040.0,Uttar Pradesh,Ghaziabad,Abupur Gate,77.5296,28.7898,2023.0,8.01,897.0,0.0,451.0,21.0,1.1,43.0,14.0,0.0,120.0,18.0,18.0,162.0,4.0,0.21,0.0,15.16,,
8042.0,Uttar Pradesh,Ghaziabad,On Road Side,77.5126,28.7766,2023.0,7.85,554.0,0.0,268.0,21.0,1.2,37.0,6.0,0.0,150.0,24.0,22.0,70.0,4.0,0.0,0.0,17.88,,
8043.0,Uttar Pradesh,Ghaziabad,Prachin Shiv Mandir Gaonkheda,77.5262,28.7738,2023.0,7.76,1042.0,0.0,537.0,21.0,1.0,44.0,25.0,0.0,150.0,20.0,24.0,158.0,50.0,0.18,0.0,12.97,,
8044.0,Uttar Pradesh,Ghaziabad,"Sumitra Sadan House, Gobind Kumar",77.4908,28.7498,2023.0,7.65,748.0,0.0,403.0,21.0,0.32,28.0,10.0,0.0,170.0,32.0,22.0,109.0,5.0,0.09,0.0,32.69,,
8046.0,Uttar Pradesh,Ghaziabad,In The Compound Of Shiv Temple,77.5376,28.6564,2023.0,8.02,515.0,0.0,232.0,14.0,0.0,37.0,16.0,0.0,180.0,32.0,24.0,40.0,4.0,0.07,0.0,0.0,,
8047.0,Uttar Pradesh,Ghaziabad,Near Honda Show Room,77.4502,28.7039,2023.0,7.54,1083.0,0.0,476.0,78.0,0.58,44.0,9.0,0.0,220.0,36.0,32.0,160.0,4.0,0.18,0.0,11.77,,
8048.0,Uttar Pradesh,Ghazipur,Block Office,83.0622,25.4561,2023.0,7.82,711.0,0.0,366.0,21.0,0.11,12.0,0.0,0.0,210.0,52.0,19.0,63.0,2.0,3.07,0.0,0.0,,
8050.0,Uttar Pradesh,Ghazipur,Biraich,83.5585,25.6117,2023.0,7.91,1290.0,0.0,659.0,57.0,1.4,14.0,0.0,0.0,210.0,28.0,34.0,196.0,3.0,0.21,0.0,36.67,,
8057.0,Uttar Pradesh,Ghazipur,Pokhra Mod Bazar,83.1413,25.6155,2023.0,7.71,697.0,0.0,342.0,28.0,0.68,10.0,17.0,0.0,310.0,48.0,46.0,16.0,3.0,0.21,0.0,19.19,,
8058.0,Uttar Pradesh,Ghazipur,Jeevpur,83.5682,25.4835,2023.0,7.66,657.0,0.0,268.0,43.0,0.11,29.0,0.0,0.0,230.0,60.0,19.0,42.0,4.0,0.25,2.49,0.0,,
8059.0,Uttar Pradesh,Gonda,Block Office,81.9106,26.9758,2023.0,7.79,775.0,0.0,427.0,35.0,0.0,25.0,0.0,0.0,320.0,64.0,38.0,45.0,4.0,0.0,2.0,5.0,,
8023.0,Uttar Pradesh,Ghaziabad,"Near Sai Temple, Saburi Park",77.4083,28.672,2023.0,7.96,849.0,0.0,464.0,28.0,0.0,16.0,16.0,0.0,340.0,36.0,61.0,42.0,6.0,0.43,0.0,19.95,,
7898.0,Uttar Pradesh,Chitrakoot,Bargarh Mod,81.4398,25.1829,2023.0,7.47,860.0,0.0,232.0,128.0,0.48,49.0,8.0,0.0,330.0,104.0,17.0,44.0,3.0,13.36,0.0,0.0,,
8022.0,Uttar Pradesh,Ghaziabad,Near Meadows Café,77.4474,28.7214,2023.0,8.06,1605.0,0.0,647.0,106.0,0.45,68.0,68.0,0.0,230.0,46.0,28.0,260.0,35.0,0.0,0.0,13.95,,
8020.0,Uttar Pradesh,Ghaziabad,Madhuvan Village,77.4804,28.7026,2023.0,7.62,1062.0,0.0,427.0,78.0,0.72,55.0,40.0,0.0,310.0,68.0,34.0,105.0,6.0,0.52,0.0,52.91,,
7983.0,Uttar Pradesh,Fatehpur,Chaudgara,80.585,26.123,2023.0,7.42,1975.0,0.0,476.0,376.0,0.5,17.0,56.0,0.0,790.0,112.0,122.0,86.0,4.0,0.87,0.0,25.47,,
7984.0,Uttar Pradesh,Fatehpur,-----Do----,81.0586,25.6917,2023.0,7.98,756.0,0.0,366.0,21.0,0.96,20.0,10.0,0.0,310.0,56.0,41.0,24.0,4.0,0.18,0.0,7.0,,
7985.0,Uttar Pradesh,Fatehpur,Rakshpalpur,81.1332,25.6256,2023.0,7.74,1212.0,0.0,415.0,99.0,0.47,61.0,75.0,0.0,400.0,56.0,62.0,89.0,5.0,0.82,0.0,10.87,,
7997.0,Uttar Pradesh,G.B. Nagar,Outside Block Office Premises,77.3771,28.5884,2023.0,8.14,759.0,0.0,354.0,57.0,0.5,20.0,29.0,0.0,280.0,60.0,31.0,49.0,8.0,0.24,0.0,6.0,,
7998.0,Uttar Pradesh,G.B. Nagar,Block H.Q,77.5535,28.5545,2023.0,8.22,828.0,0.0,390.0,43.0,0.43,19.0,10.0,0.0,250.0,36.0,38.0,80.0,7.0,0.09,0.0,42.0,,
7999.0,Uttar Pradesh,G.B. Nagar,Dadri,77.5535,28.5544,2023.0,8.01,1401.0,0.0,464.0,99.0,0.8,90.0,72.0,0.0,260.0,40.0,39.0,195.0,8.0,0.08,0.0,49.55,,
8000.0,Uttar Pradesh,G.B. Nagar,Bagpur,77.5308,28.3235,2023.0,8.04,1258.0,0.0,207.0,92.0,0.4,310.0,66.0,0.0,420.0,80.0,53.0,99.0,4.0,0.06,0.0,8.0,,
8002.0,Uttar Pradesh,G.B. Nagar,Fatehpur Atta,77.4973,28.3069,2023.0,8.15,684.0,0.0,329.0,21.0,1.2,39.0,8.0,0.0,270.0,52.0,34.0,48.0,4.0,0.0,0.0,11.0,,
8003.0,Uttar Pradesh,G.B. Nagar,Parsaul,77.5939,28.3256,2023.0,8.02,391.0,0.0,183.0,14.0,0.9,28.0,0.0,0.0,180.0,40.0,19.0,10.0,3.0,0.0,0.0,13.0,,
8005.0,Uttar Pradesh,G.B. Nagar,Neem Ka Khara Kua,77.6072,28.1378,2023.0,8.46,986.0,18.0,378.0,35.0,1.04,80.0,23.0,0.0,250.0,48.0,32.0,111.0,12.0,0.05,0.0,28.47,,
8006.0,Uttar Pradesh,G.B. Nagar,Neemka,77.6068,28.1383,2023.0,8.1,781.0,0.0,342.0,43.0,0.57,68.0,17.0,0.0,350.0,64.0,46.0,40.0,9.0,0.0,0.0,26.19,,
8007.0,Uttar Pradesh,G.B. Nagar,Ronija,77.5626,28.2762,2023.0,8.28,779.0,0.0,390.0,14.0,0.79,31.0,0.0,0.0,220.0,40.0,29.0,76.0,5.0,0.06,0.0,20.61,,
8008.0,Uttar Pradesh,G.B. Nagar,Bhagwantpur Chhatanga,77.5392,28.1081,2023.0,7.97,4416.0,0.0,390.0,362.0,0.46,1350.0,0.0,0.0,610.0,116.0,78.0,760.0,20.0,0.42,0.0,9.0,,
8009.0,Uttar Pradesh,G.B. Nagar,Choroli,77.6077,28.136,2023.0,7.94,1090.0,0.0,146.0,113.0,0.48,92.0,160.0,0.0,310.0,108.0,10.0,98.0,5.0,0.11,0.0,13.0,,
8010.0,Uttar Pradesh,G.B. Nagar,Gopalgarh,77.5584,28.0902,2023.0,8.45,1191.0,24.0,451.0,50.0,1.02,86.0,10.0,0.0,230.0,32.0,36.0,176.0,6.0,0.07,0.0,26.0,,
8011.0,Uttar Pradesh,G.B. Nagar,Rampur Banger,77.5697,28.1665,2023.0,8.38,774.0,18.0,329.0,21.0,2.6,38.0,7.0,0.0,180.0,36.0,22.0,94.0,2.0,0.09,1.0,14.0,,
8013.0,Uttar Pradesh,Ghaziabad,Dhaulana,77.6473,28.6214,2023.0,7.99,438.0,0.0,244.0,7.0,1.0,27.0,0.0,0.0,190.0,28.0,29.0,19.0,3.0,0.13,0.0,32.0,,
8014.0,Uttar Pradesh,Ghaziabad,Naraina,77.7389,28.6065,2023.0,7.96,266.0,0.0,134.0,4.0,0.45,21.0,0.0,0.0,120.0,24.0,15.0,6.0,4.0,0.0,1.52,11.71,,
8015.0,Uttar Pradesh,Ghaziabad,Near Rly. St.,77.4367,28.6517,2023.0,7.68,3032.0,0.0,476.0,766.0,0.38,65.0,27.0,0.0,505.0,72.0,79.0,520.0,8.0,0.0,0.0,12.0,,
8016.0,Uttar Pradesh,Ghaziabad,Dada Shree Ramji Gate,77.4613,28.7454,2023.0,8.17,1118.0,0.0,598.0,14.0,0.38,88.0,22.0,0.0,240.0,72.0,15.0,155.0,21.0,0.0,0.0,0.0,,
8017.0,Uttar Pradesh,Ghaziabad,Jal Kal Vibhag,77.3435,28.6847,2023.0,7.39,2976.0,0.0,329.0,709.0,0.0,206.0,79.0,0.0,620.0,202.0,28.0,398.0,7.0,0.15,0.0,11.13,,
8018.0,Uttar Pradesh,Ghaziabad,Jal Nigam Pani Tanki Inside,77.439,28.6361,2023.0,7.96,1291.0,0.0,329.0,241.0,0.82,24.0,8.0,0.0,140.0,32.0,15.0,240.0,5.0,0.27,0.0,26.29,,
8019.0,Uttar Pradesh,Ghaziabad,Kali Temple Boundary Wall,77.3618,28.6889,2023.0,7.81,1617.0,0.0,439.0,248.0,0.5,49.0,68.0,0.0,180.0,36.0,22.0,305.0,5.0,0.0,1.08,15.28,,
8021.0,Uttar Pradesh,Ghaziabad,Mother Care Public School,77.4226,28.6927,2023.0,7.58,1372.0,0.0,549.0,128.0,0.17,34.0,32.0,0.0,285.0,74.0,24.0,185.0,6.0,0.11,0.0,30.64,,
7897.0,Uttar Pradesh,Chitrakoot,Bambhuri,81.3706,25.2192,2023.0,7.6,701.0,0.0,317.0,28.0,0.27,23.0,34.0,0.0,290.0,60.0,34.0,26.0,0.0,0.43,0.0,0.0,,
7896.0,Uttar Pradesh,Chitrakoot,Tikariya Railway,80.8756,25.0013,2023.0,7.57,1156.0,0.0,317.0,135.0,0.34,57.0,79.0,0.0,290.0,68.0,29.0,101.0,49.0,0.4,0.0,0.0,,
7895.0,Uttar Pradesh,Chitrakoot,Saharipurwa,80.0659,25.1056,2023.0,7.84,527.0,0.0,232.0,28.0,0.36,7.0,25.0,0.0,180.0,56.0,10.0,37.0,1.0,0.32,0.0,0.0,,
7799.0,Uttar Pradesh,Bareilly,Block Hq,79.5044,28.3375,2023.0,7.92,599.0,0.0,256.0,36.0,0.26,35.0,0.0,0.0,230.0,36.0,34.0,23.0,16.0,3.31,1.0,23.0,,
7801.0,Uttar Pradesh,Bareilly,Mirzapur,79.2946,28.556,2023.0,7.85,796.0,0.0,342.0,43.0,0.0,45.0,0.0,0.0,210.0,52.0,19.0,73.0,7.0,0.98,10.64,0.0,,
7804.0,Uttar Pradesh,Bareilly,Budhanpur Bujurg,79.0209,28.4254,2023.0,7.97,378.0,0.0,195.0,14.0,0.0,6.0,0.0,0.0,100.0,38.0,1.0,34.0,3.0,0.75,0.0,0.0,,
7805.0,Uttar Pradesh,Bareilly,Nurpur,79.1521,28.2994,2023.0,7.92,712.0,0.0,360.0,25.0,0.29,0.0,0.0,0.0,280.0,48.0,38.0,32.0,5.0,0.79,8.42,8.62,,
7807.0,Uttar Pradesh,Bareilly,Bunchi,79.2967,28.6935,2023.0,7.94,630.0,0.0,305.0,21.0,0.19,12.0,0.0,0.0,220.0,44.0,26.0,39.0,3.0,2.87,5.01,3.48,,
7808.0,Uttar Pradesh,Basti,Block Office,82.5736,26.9075,2023.0,7.81,440.0,0.0,244.0,14.0,0.45,5.0,0.0,0.0,205.0,50.0,19.0,10.0,2.0,0.0,2.0,0.0,,
7809.0,Uttar Pradesh,Basti,Bedipur Chauraha,82.4414,26.8864,2023.0,7.79,691.0,0.0,354.0,35.0,0.0,27.0,7.0,0.0,300.0,76.0,26.0,36.0,1.0,0.0,1.03,0.0,,
7810.0,Uttar Pradesh,Basti,Parasurampur,82.34,26.905,2023.0,7.69,589.0,0.0,329.0,21.0,0.47,5.0,0.0,0.0,245.0,72.0,16.0,29.0,2.0,1.39,11.0,0.0,,
7811.0,Uttar Pradesh,Basti,Bardhar,82.7328,27.0328,2023.0,7.89,484.0,0.0,281.0,14.0,0.0,0.0,5.0,0.0,220.0,64.0,14.0,14.0,3.0,0.42,2.86,0.0,,
7813.0,Uttar Pradesh,Basti,Jiwdhara Village,82.8662,26.7742,2023.0,7.99,490.0,0.0,256.0,21.0,0.35,7.0,17.0,0.0,220.0,48.0,24.0,19.0,3.0,0.09,0.0,7.0,,
7816.0,Uttar Pradesh,Bijnor,Block Office,78.7317,29.3797,2023.0,7.61,322.0,0.0,195.0,14.0,0.47,0.0,0.0,0.51,160.0,56.0,5.0,8.0,1.0,0.42,28.0,0.0,,
7817.0,Uttar Pradesh,Bijnor,Fathepur Dhara,78.8372,29.446,2023.0,7.6,529.0,0.0,305.0,14.0,0.35,8.0,8.0,0.0,280.0,68.0,26.0,4.0,1.0,0.0,0.0,0.0,,
7818.0,Uttar Pradesh,Bijnor,Rasulpur Abad,78.6655,29.4459,2023.0,7.82,438.0,0.0,244.0,7.0,0.39,19.0,0.0,0.0,190.0,76.0,0.0,17.0,1.0,1.54,2.91,0.0,,
7820.0,Uttar Pradesh,Bijnor,Rohniya,78.254,28.1772,2023.0,7.4,829.0,0.0,439.0,14.0,0.19,45.0,0.0,0.0,380.0,100.0,31.0,19.0,8.0,7.49,9.13,4.24,,
7822.0,Uttar Pradesh,Bijnor,Bhiriya Khera,78.2633,29.06,2023.0,7.6,863.0,0.0,451.0,35.0,0.23,52.0,0.0,0.0,420.0,92.0,46.0,22.0,6.0,0.09,0.0,59.52,,
7824.0,Uttar Pradesh,Bijnor,Suwaheri Khurd,78.1756,29.4675,2023.0,7.74,890.0,0.0,439.0,35.0,0.25,51.0,0.0,0.0,450.0,60.0,72.0,3.0,9.0,0.15,5.0,19.0,,
7825.0,Uttar Pradesh,Bijnor,Khushalpur,78.5389,29.4408,2023.0,7.8,740.0,0.0,390.0,43.0,0.4,13.0,0.0,0.0,330.0,88.0,26.0,28.0,3.0,0.36,0.0,10.84,,
7826.0,Uttar Pradesh,Bijnor,Chakrani/ Gidarpura,78.0494,29.8022,2023.0,8.0,842.0,0.0,403.0,57.0,0.27,50.0,0.0,0.0,350.0,40.0,60.0,47.0,10.0,2.29,4.0,136.0,,
7827.0,Uttar Pradesh,Bijnor,Hakeempur,78.1128,29.5585,2023.0,7.5,725.0,0.0,390.0,14.0,0.38,29.0,30.0,0.0,345.0,112.0,16.0,20.0,5.0,0.42,1.33,19.09,,
7828.0,Uttar Pradesh,Bijnor,Jagdishpur,78.2479,28.5627,2023.0,7.9,380.0,0.0,226.0,7.0,0.51,18.0,0.0,0.0,190.0,60.0,10.0,7.0,4.0,0.95,0.0,0.0,,
7798.0,Uttar Pradesh,Bareilly,Sawarkhera,79.566,28.4383,2023.0,8.12,492.0,0.0,268.0,7.0,0.29,0.0,0.0,0.0,200.0,48.0,19.0,18.0,3.0,0.28,10.36,0.0,,
7829.0,Uttar Pradesh,Bijnor,Medduwalla,78.3975,29.7094,2023.0,7.2,647.0,0.0,354.0,21.0,0.3,20.0,14.0,0.0,320.0,116.0,7.0,14.0,2.0,0.7,0.0,0.0,,
7795.0,Uttar Pradesh,Bareilly,Garibpurwa,79.5549,28.8005,2023.0,8.22,430.0,0.0,201.0,11.0,0.35,20.0,0.0,0.0,160.0,28.0,22.0,23.0,1.0,0.25,0.0,3.85,,
2948.0,Jammu & Kashmir,Udhampur,Rakh Badali,75.1089,32.9153,2023.0,6.66,570.0,0.0,221.0,35.0,0.18,24.0,44.0,0.0,265.0,82.0,15.0,16.0,1.0,-0.02,0.16,0.34,,
2949.0,Jammu & Kashmir,Udhampur,Seen Thakaran,75.0383,32.9131,2023.0,6.86,670.0,0.0,392.0,17.0,0.22,25.0,10.0,0.0,335.0,116.0,11.0,19.0,1.0,-0.03,0.14,1.23,,
7768.0,Uttar Pradesh,Banda,MBaaduhauni,80.8693,25.6152,2023.0,8.07,1284.0,0.0,622.0,50.0,0.49,15.0,7.0,0.0,350.0,32.0,65.0,115.0,0.0,0.09,0.0,17.75,,
7769.0,Uttar Pradesh,Banda,Kacchi Sadak,80.4345,25.2504,2023.0,7.82,870.0,0.0,451.0,21.0,0.22,31.0,0.0,0.0,330.0,116.0,10.0,46.0,1.0,0.32,0.0,0.0,,
7771.0,Uttar Pradesh,Banda,Manohar Purwa,80.6007,25.2644,2023.0,7.87,800.0,0.0,415.0,28.0,0.53,12.0,0.0,0.0,240.0,36.0,36.0,73.0,1.0,0.5,0.0,28.21,,
7772.0,Uttar Pradesh,Banda,P(Truarsrhai)dhhapur,80.6143,25.1351,2023.0,7.62,1249.0,0.0,427.0,135.0,0.81,48.0,37.0,0.0,400.0,88.0,43.0,101.0,0.0,0.1,0.0,7.19,,
7773.0,Uttar Pradesh,Banda,Bhujrakh,80.5879,25.6442,2023.0,8.1,891.0,0.0,488.0,21.0,0.49,8.0,10.0,0.0,250.0,48.0,31.0,89.0,2.0,0.32,0.0,5.07,,
7774.0,Uttar Pradesh,Barabanki,Block Office,81.524,26.793,2023.0,7.78,633.0,0.0,317.0,14.0,0.35,15.0,0.0,0.0,240.0,64.0,19.0,21.0,4.0,1.67,4.0,0.0,,
7780.0,Uttar Pradesh,Barabanki,Chaubisi,81.4294,26.5722,2023.0,7.87,551.0,0.0,348.0,11.0,0.14,0.0,0.0,0.0,240.0,72.0,14.0,24.0,5.0,0.21,0.0,6.55,,
7781.0,Uttar Pradesh,Barabanki,Bhanmau,81.2644,26.8014,2023.0,8.37,525.0,18.0,244.0,14.0,0.48,15.0,0.0,0.0,195.0,28.0,30.0,37.0,5.0,1.21,2.93,11.57,,
7784.0,Uttar Pradesh,Barabanki,Lakshvar Vajaha,81.2908,26.9178,2023.0,7.93,591.0,0.0,354.0,11.0,0.27,20.0,0.0,0.0,260.0,60.0,26.0,24.0,5.0,0.87,0.0,3.44,,
7785.0,Uttar Pradesh,Barabanki,Baba Ki Kutti,81.1007,27.1782,2023.0,8.06,389.0,0.0,195.0,11.0,0.99,21.0,0.0,0.0,170.0,48.0,12.0,7.0,3.0,0.65,11.85,0.0,,
7792.0,Uttar Pradesh,Barabanki,Purwa Amarsingh,81.3914,27.139,2023.0,8.02,561.0,0.0,342.0,14.0,0.11,5.0,0.0,0.0,230.0,64.0,17.0,29.0,5.0,3.38,3.6,0.0,,
7794.0,Uttar Pradesh,Bareilly,Nawada,79.4935,28.1705,2023.0,8.39,467.0,6.0,201.0,7.0,0.14,28.0,0.0,0.0,210.0,44.0,24.0,7.0,3.0,0.33,7.06,0.0,,
7796.0,Uttar Pradesh,Bareilly,Samshapur,79.4314,28.5658,2023.0,7.9,514.0,0.0,275.0,14.0,0.13,0.0,0.0,0.0,220.0,48.0,24.0,15.0,3.0,1.23,0.0,0.0,,
2946.0,Jammu & Kashmir,Udhampur,Nagrota Panjgrain,75.2708,32.8358,2023.0,6.46,380.0,0.0,234.0,10.0,0.26,12.0,6.0,0.0,195.0,54.0,15.0,15.0,2.0,-0.03,0.1,0.12,,
7830.0,Uttar Pradesh,Bijnor,Ramdas Wali,78.2469,29.697,2023.0,7.7,758.0,0.0,323.0,78.0,0.37,27.0,8.0,0.0,340.0,124.0,7.0,28.0,6.0,0.0,1.17,0.0,,
7832.0,Uttar Pradesh,Bijnor,Murahat,78.4011,29.0497,2023.0,7.9,548.0,0.0,244.0,35.0,0.21,29.0,0.0,0.0,225.0,68.0,13.0,23.0,5.0,0.25,6.95,7.83,,
7866.0,Uttar Pradesh,Bulandshahar,Block H.Q,77.9774,28.5264,2023.0,8.12,849.0,0.0,366.0,21.0,0.77,60.0,23.0,0.0,300.0,44.0,46.0,59.0,7.0,0.22,0.0,17.0,,
7868.0,Uttar Pradesh,Bulandshahar,Palra,77.9446,28.2664,2023.0,7.87,564.0,0.0,281.0,7.0,0.6,31.0,0.0,0.0,250.0,52.0,29.0,13.0,5.0,0.23,0.0,7.0,,
7870.0,Uttar Pradesh,Bulandshahar,Nawada,78.0632,28.2595,2023.0,8.12,1109.0,0.0,439.0,78.0,1.8,64.0,8.0,0.0,180.0,28.0,27.0,177.0,6.0,0.22,1.05,14.78,,
7872.0,Uttar Pradesh,Bulandshahar,Gesupur,77.7012,28.5286,2023.0,8.18,1277.0,0.0,647.0,7.0,0.84,65.0,19.0,0.0,190.0,36.0,24.0,200.0,10.0,0.0,0.0,26.98,,
7875.0,Uttar Pradesh,Chandauli,Sirkolpur,83.4104,25.3646,2023.0,8.02,652.0,0.0,342.0,28.0,0.9,15.0,10.0,0.0,210.0,40.0,26.0,59.0,2.0,0.06,0.0,11.42,,
7876.0,Uttar Pradesh,Chandauli,Chahania,83.2094,25.4178,2023.0,7.92,896.0,0.0,415.0,50.0,0.22,24.0,16.0,0.0,350.0,56.0,50.0,41.0,4.0,0.0,0.0,12.0,,
7877.0,Uttar Pradesh,Chandauli,Sirkalpur,83.28,25.4863,2023.0,8.0,588.0,0.0,354.0,14.0,0.3,10.0,0.0,0.0,270.0,48.0,34.0,20.0,4.0,3.35,8.01,0.0,,
7878.0,Uttar Pradesh,Chandauli,Kauwada Ghat,83.25,24.8168,2023.0,7.9,353.0,0.0,195.0,14.0,0.3,8.0,0.0,0.0,100.0,36.0,2.0,41.0,0.0,2.16,0.0,0.0,,
7879.0,Uttar Pradesh,Chandauli,Lawari Khurd,83.2249,24.8972,2023.0,7.91,344.0,0.0,134.0,28.0,0.35,26.0,6.0,0.0,130.0,36.0,10.0,21.0,6.0,0.0,0.0,0.0,,
7880.0,Uttar Pradesh,Chandauli,Magrahi,83.2993,24.8268,2023.0,7.75,521.0,0.0,220.0,50.0,0.41,15.0,0.0,0.0,110.0,36.0,5.0,68.0,10.0,1.02,3.3,0.0,,
7881.0,Uttar Pradesh,Chandauli,Munuwat,83.3264,24.8922,2023.0,7.7,263.0,0.0,110.0,28.0,0.3,11.0,0.0,0.0,120.0,36.0,14.0,10.0,5.0,3.8,0.0,0.0,,
7882.0,Uttar Pradesh,Chandauli,Sikarganj,83.217,25.0082,2023.0,7.75,460.0,0.0,256.0,14.0,0.46,8.0,7.0,0.0,190.0,48.0,17.0,25.0,3.0,0.12,0.0,0.0,,
7884.0,Uttar Pradesh,Chandauli,Sakaldiha,83.2583,25.3553,2023.0,8.14,1502.0,0.0,683.0,85.0,1.0,48.0,9.0,0.0,230.0,28.0,38.0,234.0,4.0,0.0,4.0,17.0,,
7885.0,Uttar Pradesh,Chandauli,Banbhishampur,83.2988,24.9949,2023.0,7.88,484.0,0.0,256.0,14.0,0.6,12.0,0.0,0.0,190.0,24.0,17.0,26.0,1.0,0.08,0.0,0.0,,
7886.0,Uttar Pradesh,Chitrakoot,Kauhari,80.8704,25.3665,2023.0,8.09,819.0,0.0,464.0,14.0,0.69,7.0,6.0,0.0,300.0,44.0,46.0,50.0,0.0,0.12,0.0,4.51,,
7887.0,Uttar Pradesh,Chitrakoot,Kol Gadhiya,80.9528,25.196,2023.0,7.94,909.0,0.0,476.0,21.0,1.04,19.0,14.0,0.0,370.0,40.0,65.0,39.0,0.0,0.06,0.0,3.97,,
7888.0,Uttar Pradesh,Chitrakoot,Ragauli,80.9733,25.2507,2023.0,7.82,799.0,0.0,427.0,21.0,0.54,7.0,9.0,0.0,340.0,52.0,50.0,26.0,1.0,0.44,0.0,3.14,,
7889.0,Uttar Pradesh,Chitrakoot,Roli,80.7276,25.22,2023.0,8.2,853.0,0.0,439.0,36.0,1.29,8.0,7.0,0.0,290.0,56.0,36.0,61.0,0.0,0.0,0.0,4.64,,
7890.0,Uttar Pradesh,Chitrakoot,B(Paaratacuhnhdiha Mod),81.164,25.1787,2023.0,8.04,854.0,0.0,464.0,14.0,0.86,0.0,22.0,0.0,290.0,68.0,29.0,63.0,0.0,0.0,0.0,3.61,,
7891.0,Uttar Pradesh,Chitrakoot,Hardiya,81.2254,25.0854,2023.0,8.07,466.0,0.0,195.0,43.0,0.45,10.0,0.0,0.0,150.0,40.0,12.0,36.0,3.0,0.78,0.0,0.0,,
7892.0,Uttar Pradesh,Chitrakoot,Karouha,81.0378,24.9996,2023.0,7.54,211.0,0.0,85.0,21.0,0.13,0.0,0.0,0.0,70.0,20.0,5.0,14.0,3.0,13.54,0.0,0.0,,
7893.0,Uttar Pradesh,Chitrakoot,Kubri,81.1652,25.0047,2023.0,7.94,1326.0,0.0,256.0,163.0,0.36,93.0,156.0,0.0,590.0,100.0,82.0,22.0,20.0,0.27,0.0,3.05,,
7894.0,Uttar Pradesh,Chitrakoot,Markundi,80.9545,25.0201,2023.0,7.87,378.0,0.0,146.0,21.0,0.39,18.0,23.0,0.0,150.0,44.0,10.0,16.0,4.0,0.17,0.0,0.0,,
7864.0,Uttar Pradesh,Bulandshahar,Dastura,77.7032,28.2753,2023.0,8.13,866.0,0.0,390.0,35.0,0.34,12.0,68.0,0.0,190.0,36.0,24.0,115.0,6.0,0.33,0.0,13.97,,
7833.0,Uttar Pradesh,Budaun,Block Hq,78.9113,28.394,2023.0,8.01,704.0,0.0,317.0,43.0,0.17,25.0,0.0,0.0,220.0,40.0,29.0,47.0,21.0,2.34,3.0,12.0,,
7834.0,Uttar Pradesh,Budaun,Biharipur Dharmpur,79.0069,28.3041,2023.0,8.25,464.0,0.0,256.0,7.0,0.0,0.0,0.0,0.0,200.0,56.0,14.0,9.0,3.0,0.11,3.17,0.0,,
7836.0,Uttar Pradesh,Budaun,Karia Bain,78.6709,28.1451,2023.0,7.91,554.0,0.0,244.0,21.0,0.24,22.0,0.0,0.0,225.0,44.0,28.0,17.0,4.0,0.25,1.0,12.64,,
7837.0,Uttar Pradesh,Budaun,Diyori,79.4179,27.9844,2023.0,7.88,562.0,0.0,305.0,7.0,0.33,7.0,0.0,0.0,220.0,52.0,22.0,22.0,3.0,0.58,5.94,9.11,,
7838.0,Uttar Pradesh,Budaun,Tiglapur,79.2927,28.0405,2023.0,8.15,644.0,0.0,317.0,21.0,0.32,16.0,0.0,0.0,210.0,44.0,24.0,49.0,3.0,0.18,8.77,6.4,,
7839.0,Uttar Pradesh,Budaun,Allahpur Kasba,79.2517,27.9083,2023.0,7.82,684.0,0.0,256.0,64.0,0.36,30.0,0.0,0.0,270.0,64.0,26.0,25.0,15.0,2.37,0.0,8.2,,
7840.0,Uttar Pradesh,Budaun,Behta Dambanagar,79.1608,27.91,2023.0,8.23,649.0,0.0,287.0,14.0,0.71,10.0,46.0,0.0,270.0,72.0,22.0,23.0,3.0,0.0,0.0,0.0,,
7842.0,Uttar Pradesh,Budaun,Khiriya Bakarpur,79.0259,27.9316,2023.0,8.14,630.0,0.0,232.0,36.0,0.36,30.0,30.0,0.0,290.0,64.0,31.0,8.0,3.0,0.2,0.0,4.99,,
7843.0,Uttar Pradesh,Budaun,Sagrai,78.8697,28.0371,2023.0,8.22,524.0,0.0,183.0,14.0,0.2,72.0,0.0,0.0,230.0,48.0,26.0,10.0,6.0,1.39,0.0,4.52,,
7844.0,Uttar Pradesh,Budaun,H P Block Office.,79.133,28.0706,2023.0,7.92,854.0,0.0,329.0,64.0,0.15,43.0,0.0,0.0,340.0,68.0,41.0,34.0,7.0,0.24,2.0,13.0,,
7845.0,Uttar Pradesh,Budaun,Kunwargaon,79.1421,28.1777,2023.0,7.78,500.0,0.0,281.0,7.0,0.26,0.0,0.0,0.0,210.0,40.0,26.0,15.0,4.0,0.66,2.03,0.0,,
7846.0,Uttar Pradesh,Budaun,"Adjacent To Sbi Bank,Ujhani",79.0144,28.0027,2023.0,7.86,1104.0,0.0,329.0,92.0,0.34,77.0,46.0,0.0,360.0,68.0,46.0,83.0,7.0,0.16,0.0,3.54,,
7847.0,Uttar Pradesh,Budaun,Laxminagra,78.8528,27.9225,2023.0,8.06,510.0,0.0,268.0,7.0,0.5,21.0,0.0,0.0,180.0,40.0,19.0,29.0,4.0,1.18,0.0,10.48,,
7849.0,Uttar Pradesh,Budaun,Firozapur,79.1948,27.8116,2023.0,8.39,842.0,6.0,256.0,57.0,0.4,116.0,0.0,0.0,200.0,44.0,22.0,97.0,3.0,0.8,0.0,7.8,,
7851.0,Uttar Pradesh,Bulandshahar,Block Office Premises,77.8985,28.5233,2023.0,8.23,583.0,0.0,354.0,14.0,0.82,23.0,14.0,0.0,250.0,60.0,24.0,43.0,5.0,0.0,2.0,14.0,,
7852.0,Uttar Pradesh,Bulandshahar,Amarpur,78.0612,28.2599,2023.0,7.81,781.0,0.0,354.0,21.0,0.38,86.0,0.0,0.0,290.0,68.0,29.0,60.0,6.0,3.45,4.0,0.0,,
7856.0,Uttar Pradesh,Bulandshahar,Dist. H.Q,77.8354,28.3886,2023.0,8.18,315.0,0.0,134.0,14.0,0.34,22.0,0.0,0.0,140.0,36.0,12.0,6.0,2.0,0.0,1.0,0.0,,
7858.0,Uttar Pradesh,Bulandshahar,Bhopatpur,78.2834,28.2963,2023.0,7.91,647.0,0.0,366.0,7.0,0.55,24.0,15.0,0.0,300.0,48.0,44.0,26.0,4.0,0.19,1.32,12.87,,
7860.0,Uttar Pradesh,Bulandshahar,Narora,78.3959,28.1884,2023.0,8.22,350.0,0.0,134.0,14.0,0.25,30.0,0.0,0.0,130.0,36.0,10.0,15.0,4.0,0.0,1.55,3.23,,
7863.0,Uttar Pradesh,Bulandshahar,Kaisawan,78.0334,28.3035,2023.0,8.2,358.0,0.0,171.0,14.0,1.0,22.0,0.0,0.0,150.0,40.0,12.0,16.0,5.0,0.29,12.0,16.0,,
7753.0,Uttar Pradesh,Balrampur,Salapur Village,82.4243,27.2313,2023.0,7.41,749.0,0.0,329.0,50.0,0.29,35.0,23.0,0.0,360.0,92.0,31.0,20.0,0.0,0.11,0.0,0.0,,
7752.0,Uttar Pradesh,Balrampur,"Raza Jot Village, Near Durga Mandir",82.407,27.2837,2023.0,7.82,481.0,0.0,305.0,7.0,0.37,5.0,0.0,0.0,220.0,64.0,14.0,17.0,3.0,0.88,6.23,0.0,,
7751.0,Uttar Pradesh,Balrampur,Patel Chauraha,82.2992,27.2145,2023.0,7.63,672.0,0.0,403.0,21.0,0.34,8.0,0.0,0.0,235.0,60.0,20.0,57.0,2.0,0.0,1.41,6.35,,
10884.0,Haryana,Jind,Kishanpura,76.3214,29.2956,2023.0,8.25,2752.0,0.0,696.0,425.0,2.7,11.0,40.0,0.0,500.0,44.0,95.0,338.0,14.0,0.02,0.42,38.97,,
10883.0,Haryana,Jind,Kharal,76.0654,29.6976,2023.0,8.19,2144.0,0.0,647.0,170.0,1.7,245.0,28.0,0.0,370.0,48.0,61.0,310.0,16.0,0.03,0.54,14.27,,
10882.0,Haryana,Jind,Julani,76.2803,29.3882,2023.0,8.41,5417.0,48.0,537.0,1099.0,1.0,519.0,49.0,0.0,590.0,28.0,126.0,982.0,14.0,0.02,0.32,32.45,,
10881.0,Haryana,Jind,Jajwan,76.1965,29.3396,2023.0,8.28,628.0,0.0,134.0,92.0,0.51,66.0,14.0,0.0,240.0,28.0,41.0,36.0,11.0,0.05,0.58,7.64,,
10880.0,Haryana,Jind,Jaipur,76.5838,29.3921,2023.0,8.24,3211.0,0.0,525.0,468.0,1.7,358.0,60.0,0.0,821.0,64.0,160.0,332.0,24.0,0.03,0.29,34.15,,
10879.0,Haryana,Jind,Haibtatpur,76.3476,29.3369,2023.0,8.66,2125.0,60.0,769.0,213.0,22.0,0.0,20.0,0.0,300.0,28.0,56.0,374.0,7.0,0.0,2.39,76.81,,
10878.0,Haryana,Jind,Chhabri,76.4583,29.2667,2023.0,8.6,924.0,48.0,244.0,149.0,1.7,0.0,7.0,0.0,310.0,32.0,56.0,90.0,7.0,0.12,0.86,23.97,,
10877.0,Haryana,Jind,Thua,76.3508,29.5302,2023.0,8.05,395.0,0.0,134.0,21.0,0.92,35.0,3.0,0.0,120.0,24.0,15.0,26.0,8.0,0.04,1.05,8.21,,
10876.0,Haryana,Jind,Raichandwala,76.4174,29.3966,2023.0,8.53,3410.0,36.0,659.0,525.0,2.5,312.0,20.0,0.0,580.0,64.0,102.0,528.0,12.0,0.02,0.92,45.37,,
10875.0,Haryana,Jind,Katwal,76.4511,29.5043,2023.0,8.38,2639.0,84.0,598.0,241.0,2.8,170.0,80.0,0.0,370.0,28.0,73.0,400.0,13.0,0.03,0.49,37.52,,
10874.0,Haryana,Jind,Dorana,76.4819,29.5186,2023.0,8.43,7842.0,84.0,171.0,1971.0,1.2,620.0,260.0,0.0,1431.0,132.0,268.0,1200.0,26.0,0.02,0.24,12.48,,
10873.0,Haryana,Jind,Chhater,76.3173,29.5153,2023.0,8.39,6482.0,36.0,415.0,1496.0,4.6,473.0,22.0,0.0,1821.0,305.0,258.0,589.0,22.0,0.02,0.69,27.01,,
10872.0,Haryana,Jind,Bighana,76.4836,29.4991,2023.0,8.56,606.0,36.0,256.0,35.0,2.3,0.0,0.0,0.0,180.0,24.0,29.0,71.0,2.0,0.01,4.78,11.79,,
10871.0,Haryana,Jind,Alewa,76.4521,29.4784,2023.0,8.69,881.0,36.0,159.0,121.0,2.6,53.0,9.0,0.0,240.0,32.0,39.0,90.0,8.0,0.04,0.5,30.01,,
10870.0,Haryana,Jhajjar,Jharli,76.3806,28.4973,2023.0,7.63,23412.0,0.0,281.0,5913.0,0.26,1729.0,210.0,0.0,8847.0,1114.0,1474.0,850.0,40.0,0.12,0.07,11.66,,
10869.0,Haryana,Jhajjar,Palra,77.1532,28.9959,2023.0,8.04,1027.0,0.0,476.0,28.0,0.94,63.0,1.0,0.0,360.0,64.0,49.0,67.0,10.0,0.03,1.82,1.25,,
10868.0,Haryana,Jhajjar,Machhrauli,76.9124,30.0923,2023.0,7.8,800.0,0.0,366.0,92.0,0.48,32.0,7.0,0.0,310.0,60.0,39.0,72.0,7.0,0.05,0.26,5.85,,
10867.0,Haryana,Jhajjar,Subhan,76.5683,28.4661,2023.0,8.03,2344.0,0.0,307.0,518.0,1.2,115.0,1.0,0.0,500.0,40.0,97.0,240.0,86.0,0.06,1.37,2.51,,
10866.0,Haryana,Jhajjar,Salawas,76.4725,28.4572,2023.0,8.19,625.0,0.0,330.0,35.0,6.2,0.0,4.0,0.0,140.0,20.0,22.0,70.0,45.0,0.03,1.15,8.07,,
10865.0,Haryana,Jhajjar,Surkakhpur Viran,76.5635,28.5119,2023.0,8.53,1157.0,36.0,220.0,184.0,3.4,87.0,1.0,0.0,210.0,20.0,39.0,182.0,3.0,0.04,1.36,3.75,,
10864.0,Haryana,Jhajjar,Surehti,76.6348,28.5075,2023.0,8.41,314.0,12.0,37.0,64.0,0.38,0.0,0.0,0.0,110.0,12.0,20.0,15.0,3.0,0.08,1.78,1.41,,
10863.0,Haryana,Jhajjar,Karoda,76.5827,28.5767,2023.0,7.94,1889.0,0.0,268.0,418.0,0.69,180.0,4.0,0.0,470.0,56.0,80.0,240.0,30.0,0.19,0.86,11.97,,
10862.0,Haryana,Jhajjar,Mudsa,76.4792,28.5458,2023.0,8.03,2326.0,0.0,427.0,468.0,5.3,125.0,23.0,0.0,250.0,36.0,39.0,432.0,19.0,0.14,2.63,29.61,,
10861.0,Haryana,Jhajjar,Chuchakwas,76.5083,28.6,2023.0,8.43,438.0,24.0,122.0,21.0,1.7,32.0,10.0,0.0,150.0,24.0,22.0,28.0,9.0,0.04,1.36,7.73,,
10860.0,Haryana,Jhajjar,Bahu,76.3341,28.4526,2023.0,7.86,2735.0,0.0,586.0,468.0,1.4,172.0,50.0,0.0,470.0,32.0,95.0,422.0,6.0,0.05,0.28,11.13,,
10859.0,Haryana,Jhajjar,Ukhal Chana,76.6998,28.5781,2023.0,8.24,3990.0,0.0,513.0,787.0,1.3,437.0,21.0,0.0,550.0,56.0,100.0,674.0,50.0,0.06,0.23,15.65,,
10858.0,Haryana,Jhajjar,Silana,76.6784,28.548,2023.0,8.74,267.0,12.0,37.0,57.0,0.34,0.0,0.0,0.0,50.0,4.0,10.0,36.0,5.0,0.05,2.02,1.27,,
10857.0,Haryana,Jhajjar,Patodha,76.672,28.3999,2023.0,8.24,359.0,0.0,159.0,35.0,1.4,0.0,3.0,0.0,160.0,20.0,27.0,15.0,0.0,0.14,0.52,2.66,,
10885.0,Haryana,Jind,Lochab,76.43,29.3578,2023.0,8.74,1282.0,96.0,525.0,78.0,4.9,0.0,9.0,0.0,240.0,16.0,49.0,203.0,8.0,0.03,1.22,60.6,,
10886.0,Haryana,Jind,Nidani,76.4148,29.2555,2023.0,8.28,2943.0,0.0,305.0,666.0,0.78,212.0,4.0,0.0,631.0,116.0,83.0,385.0,5.0,0.04,0.48,4.78,,
10888.0,Haryana,Jind,Shahpur,76.3525,29.4011,2023.0,8.39,984.0,48.0,268.0,57.0,1.3,48.0,40.0,0.0,270.0,48.0,36.0,91.0,11.0,0.04,0.51,37.76,,
10918.0,Haryana,Jind,Rojhla,76.6025,29.3637,2023.0,8.15,3583.0,0.0,757.0,631.0,2.2,231.0,23.0,0.0,831.0,128.0,124.0,454.0,16.0,0.03,0.29,47.3,,
10917.0,Haryana,Jind,Paju Khurd,76.626,29.4372,2023.0,8.56,818.0,36.0,232.0,78.0,2.0,48.0,0.0,0.0,50.0,4.0,10.0,174.0,2.0,0.02,4.65,15.44,,
10916.0,Haryana,Jind,Muana,76.5729,29.4331,2023.0,8.61,886.0,24.0,354.0,50.0,2.4,0.0,0.0,0.0,70.0,8.0,12.0,158.0,2.0,0.02,5.26,13.34,,
10915.0,Haryana,Jind,Karsola,76.4142,29.1392,2023.0,7.69,3095.0,0.0,378.0,737.0,0.56,161.0,55.0,0.0,1171.0,244.0,136.0,203.0,10.0,0.12,0.26,3.13,,
10914.0,Haryana,Jind,Bhuslana,76.7505,29.4524,2023.0,8.39,1628.0,60.0,549.0,99.0,2.4,115.0,10.0,0.0,370.0,60.0,54.0,210.0,13.0,0.01,0.46,46.19,,
10913.0,Haryana,Jind,Bagru Kalan,76.6046,29.2959,2023.0,7.55,9890.0,0.0,537.0,2680.0,1.1,495.0,280.0,0.0,3643.0,293.0,708.0,620.0,118.0,0.26,0.05,25.82,,
10912.0,Haryana,Jind,Pilukhera,76.4875,29.3361,2023.0,8.07,989.0,0.0,525.0,78.0,4.3,0.0,8.0,0.0,350.0,32.0,66.0,97.0,6.0,0.04,0.19,32.99,,
10911.0,Haryana,Jind,Hadwa,76.5606,29.3045,2023.0,7.75,3368.0,0.0,574.0,674.0,0.4,263.0,1.0,0.0,1061.0,164.0,158.0,286.0,33.0,0.12,0.23,8.12,,
10910.0,Haryana,Jind,Gangana,76.6113,29.2404,2023.0,8.49,652.0,36.0,110.0,78.0,1.0,48.0,1.0,0.0,120.0,20.0,17.0,89.0,6.0,0.12,1.17,23.7,,
10909.0,Haryana,Jind,Berikhera,76.5358,29.3868,2023.0,8.48,931.0,60.0,378.0,21.0,0.6,0.0,35.0,0.0,310.0,32.0,56.0,76.0,10.0,0.05,0.22,88.79,,
10908.0,Haryana,Jind,Rajgarh Dhobi,76.0623,29.746,2023.0,8.43,1413.0,60.0,403.0,220.0,0.78,0.0,26.0,0.0,540.0,60.0,95.0,106.0,17.0,0.03,0.46,25.15,,
10907.0,Haryana,Jind,Narwana,76.1249,29.6165,2023.0,7.93,1255.0,0.0,391.0,135.0,2.3,48.0,50.0,0.0,340.0,36.0,61.0,107.0,45.0,0.04,0.49,8.81,,
10906.0,Haryana,Jind,Napewala,76.146,29.754,2023.0,8.52,780.0,24.0,220.0,92.0,3.0,12.0,6.0,0.0,190.0,28.0,29.0,84.0,11.0,0.03,0.95,18.43,,
10905.0,Haryana,Jind,Kalwan,75.9831,29.6898,2023.0,8.66,6796.0,24.0,525.0,1758.0,2.8,367.0,55.0,0.0,2262.0,232.0,409.0,530.0,14.0,0.01,0.33,40.98,,
10904.0,Haryana,Jind,Kaloda Kalan,75.9793,29.5826,2023.0,8.41,297.0,24.0,61.0,28.0,0.51,0.0,1.0,0.0,70.0,8.0,12.0,27.0,5.0,0.04,1.89,1.96,,
10903.0,Haryana,Jind,Harnampura,76.0526,29.6435,2023.0,8.55,860.0,24.0,281.0,99.0,0.63,0.0,94.0,0.0,290.0,36.0,49.0,86.0,13.0,0.04,0.39,14.94,,
10902.0,Haryana,Jind,Dhanauri,76.1753,29.7716,2023.0,8.56,1444.0,48.0,391.0,149.0,3.2,64.0,65.0,0.0,200.0,12.0,41.0,187.0,124.0,0.03,0.53,22.87,,
10901.0,Haryana,Jind,Datasinghwala,76.1287,29.7751,2023.0,8.58,674.0,24.0,244.0,28.0,2.2,22.0,20.0,0.0,120.0,16.0,19.0,95.0,8.0,0.01,1.42,17.37,,
10900.0,Haryana,Jind,Danoda Khurd,75.9809,29.5277,2023.0,8.28,340.0,0.0,134.0,35.0,0.57,0.0,1.0,0.0,100.0,8.0,19.0,25.0,10.0,0.04,0.37,5.71,,
10898.0,Haryana,Jind,Dablain,76.0684,29.5856,2023.0,8.52,454.0,24.0,195.0,21.0,0.46,0.0,5.0,0.0,150.0,36.0,15.0,39.0,7.0,0.04,2.16,2.66,,
10897.0,Haryana,Jind,Chak Ujhana,76.1245,29.7145,2023.0,8.47,766.0,24.0,171.0,106.0,2.6,0.0,2.0,0.0,180.0,16.0,34.0,73.0,5.0,0.03,1.62,12.58,,
10896.0,Haryana,Jind,Bhana Braahmanan,76.1722,29.6603,2023.0,8.45,2332.0,36.0,305.0,404.0,0.44,264.0,1.0,0.0,671.0,92.0,107.0,237.0,11.0,0.05,0.48,3.53,,
10895.0,Haryana,Jind,Zafergarh,76.4258,29.0877,2023.0,8.04,1184.0,0.0,220.0,248.0,1.0,48.0,2.0,0.0,320.0,28.0,61.0,127.0,8.0,0.03,1.2,9.28,,
10894.0,Haryana,Jind,Lajwana Kalan,76.4814,29.1587,2023.0,8.67,659.0,24.0,171.0,57.0,1.7,48.0,4.0,0.0,150.0,24.0,22.0,80.0,4.0,0.02,0.76,12.28,,
10893.0,Haryana,Jind,Kinana,76.4148,29.2416,2023.0,8.17,3562.0,0.0,647.0,588.0,0.86,343.0,15.0,0.0,651.0,32.0,139.0,516.0,15.0,0.03,0.84,23.42,,
10892.0,Haryana,Jind,Julana,76.2719,29.4769,2023.0,7.72,584.0,0.0,195.0,85.0,1.7,0.0,12.0,0.0,130.0,32.0,12.0,76.0,6.0,0.03,0.69,7.44,,
10891.0,Haryana,Jind,Jhamola,76.34,29.1404,2023.0,7.72,3016.0,0.0,635.0,397.0,2.6,259.0,265.0,0.0,1081.0,136.0,180.0,128.0,210.0,0.07,0.32,35.1,,
10890.0,Haryana,Jind,Dhigana,76.4364,29.2208,2023.0,8.65,271.0,24.0,49.0,14.0,0.62,22.0,1.0,0.0,40.0,4.0,7.0,38.0,5.0,0.01,4.04,0.28,,
10889.0,Haryana,Jind,Brahmanwas,76.4083,29.1333,2023.0,7.53,2620.0,0.0,256.0,659.0,0.87,139.0,19.0,0.0,1011.0,172.0,141.0,150.0,9.0,0.34,0.11,8.21,,
10887.0,Haryana,Jind,Ramrai,76.2327,29.2818,2023.0,8.16,553.0,0.0,171.0,85.0,0.45,0.0,0.0,0.0,220.0,32.0,34.0,16.0,13.0,0.04,0.58,7.12,,
10919.0,Haryana,Jind,Saffidon,76.6546,29.3181,2023.0,8.2,487.0,0.0,268.0,21.0,1.5,0.0,7.0,0.0,183.0,31.0,26.0,29.0,17.0,0.03,0.82,14.62,,
10854.0,Haryana,Jhajjar,Jhajjar,76.6603,28.5986,2023.0,7.79,2754.0,0.0,476.0,624.0,2.3,106.0,13.0,0.0,781.0,92.0,134.0,290.0,12.0,0.27,0.65,34.24,,
10852.0,Haryana,Jhajjar,Bhadani,76.5546,28.6461,2023.0,8.45,654.0,24.0,134.0,106.0,1.1,0.0,3.0,0.0,270.0,24.0,51.0,19.0,4.0,0.07,0.23,12.92,,
10817.0,Haryana,Hisar,Neoli Kalan,75.6257,29.182,2023.0,7.93,409.0,0.0,184.0,50.0,1.0,0.0,2.0,0.0,200.0,40.0,24.0,11.0,7.0,0.03,0.66,2.68,,
10816.0,Haryana,Hisar,Bir Hisar (Bir Babran),75.7478,29.2544,2023.0,8.24,416.0,0.0,154.0,57.0,0.68,0.0,1.0,0.0,200.0,22.0,35.0,6.0,3.0,0.08,0.19,12.45,,
10815.0,Haryana,Hisar,Bherian,75.6602,29.048,2023.0,7.88,605.0,0.0,244.0,50.0,1.2,0.0,3.0,0.0,230.0,12.0,49.0,14.0,19.0,0.23,0.17,2.81,,
10814.0,Haryana,Hisar,Basra,75.525,29.2167,2023.0,7.63,445.0,0.0,164.0,71.0,1.0,0.0,3.0,0.0,200.0,39.0,25.0,16.0,9.0,0.62,1.45,5.08,,
10813.0,Haryana,Hisar,Saharwa,75.7379,28.9229,2023.0,7.58,1247.0,0.0,476.0,163.0,1.4,26.0,9.0,0.0,240.0,8.0,54.0,132.0,114.0,0.03,2.67,1.58,,
10812.0,Haryana,Hisar,Raipur,75.8235,29.1423,2023.0,8.04,941.0,0.0,305.0,99.0,1.2,124.0,0.0,0.0,440.0,88.0,54.0,46.0,2.0,0.07,1.32,110.91,,
10811.0,Haryana,Hisar,Kuleri,75.6602,29.3605,2023.0,7.59,2969.0,0.0,464.0,604.0,0.75,137.0,25.0,0.0,1140.0,88.0,224.0,122.0,11.0,0.1,0.28,6.63,,
10810.0,Haryana,Hisar,Kharkari,75.8713,29.2032,2023.0,7.72,3937.0,0.0,427.0,795.0,1.5,434.0,25.0,0.0,1120.0,120.0,199.0,368.0,7.0,0.54,0.22,2.4,,
10809.0,Haryana,Hisar,Dobeta,75.7776,28.95,2023.0,7.69,3778.0,0.0,366.0,923.0,0.97,163.0,32.0,0.0,670.0,16.0,153.0,522.0,2.0,0.03,0.89,22.81,,
10808.0,Haryana,Hisar,Daya / Badon Rangraon,75.7415,29.0081,2023.0,7.93,412.0,0.0,148.0,71.0,0.66,0.0,3.0,0.0,180.0,60.0,7.0,21.0,3.0,0.03,0.2,2.5,,
10807.0,Haryana,Hisar,Balawas,75.8222,28.9583,2023.0,7.59,1744.0,0.0,610.0,291.0,1.2,63.0,9.0,0.0,670.0,40.0,139.0,119.0,66.0,0.01,0.44,8.47,,
10806.0,Haryana,Hisar,Rampur Damundi,75.7876,29.4268,2023.0,7.88,1628.0,0.0,293.0,199.0,2.1,302.0,10.0,0.0,610.0,52.0,117.0,112.0,7.0,0.01,0.22,15.44,,
10805.0,Haryana,Hisar,Kirtan,75.5569,29.1395,2023.0,7.42,4707.0,0.0,549.0,1207.0,0.87,257.0,27.0,0.0,1520.0,60.0,333.0,431.0,3.0,0.01,0.21,12.24,,
10804.0,Haryana,Hisar,Hazampur,75.9739,29.0028,2023.0,8.43,1464.0,48.0,586.0,107.0,3.3,78.0,17.0,0.0,270.0,20.0,54.0,231.0,12.0,0.08,0.72,8.07,,
10803.0,Haryana,Hisar,Datta,75.494,29.2675,2023.0,7.86,423.0,0.0,144.0,64.0,0.56,0.0,1.0,0.0,200.0,40.0,24.0,7.0,2.0,0.08,0.63,8.06,,
10802.0,Haryana,Hisar,Bir Hansi (Bir Farm),75.9778,29.1433,2023.0,7.74,2829.0,0.0,305.0,639.0,3.6,128.0,9.0,0.0,800.0,24.0,180.0,241.0,6.0,0.1,1.81,34.42,,
10801.0,Haryana,Hisar,Umra,75.9131,29.0554,2023.0,7.83,1279.0,0.0,342.0,234.0,0.71,0.0,4.0,0.0,400.0,44.0,70.0,78.0,54.0,0.04,0.67,3.48,,
10800.0,Haryana,Hisar,Sorkhi,76.1241,29.0503,2023.0,7.93,2822.0,0.0,586.0,454.0,3.2,89.0,39.0,0.0,540.0,52.0,100.0,346.0,4.0,0.03,0.41,12.92,,
10799.0,Haryana,Hisar,Rajali Cross,75.9103,29.2904,2023.0,7.9,1061.0,0.0,378.0,142.0,0.95,0.0,30.0,0.0,400.0,52.0,66.0,68.0,3.0,0.44,0.29,4.77,,
10798.0,Haryana,Hisar,Khanda Kheri,76.2116,29.194,2023.0,8.02,3326.0,0.0,403.0,589.0,0.84,279.0,19.0,0.0,650.0,48.0,129.0,361.0,16.0,0.03,0.15,9.34,,
10797.0,Haryana,Hisar,Chanaut,75.9208,29.2083,2023.0,7.41,4664.0,0.0,424.0,966.0,0.59,54.0,781.0,0.0,1770.0,236.0,287.0,224.0,62.0,0.03,0.22,9.06,,
10796.0,Haryana,Hisar,Singhwa Khas,76.2268,29.0189,2023.0,8.04,3086.0,0.0,708.0,305.0,4.0,395.0,25.0,0.0,490.0,20.0,107.0,441.0,7.0,0.04,0.36,1.93,,
10795.0,Haryana,Hisar,Bass,74.8125,29.1136,2023.0,7.34,7366.0,0.0,403.0,1775.0,0.61,453.0,27.0,0.0,950.0,24.0,216.0,1104.0,10.0,0.31,0.95,53.64,,
10794.0,Haryana,Hisar,Badchhapar,74.9929,29.1189,2023.0,7.76,2291.0,0.0,268.0,412.0,1.8,257.0,31.0,0.0,400.0,8.0,92.0,319.0,8.0,0.14,0.26,7.76,,
10793.0,Haryana,Hisar,Thurana,76.1124,29.1467,2023.0,8.05,945.0,0.0,207.0,156.0,0.92,71.0,1.0,0.0,300.0,58.0,38.0,70.0,6.0,0.05,0.29,2.48,,
10792.0,Haryana,Hisar,Litani,75.9786,29.4787,2023.0,8.08,4627.0,0.0,756.0,916.0,2.8,178.0,25.0,0.0,550.0,65.0,94.0,743.0,15.0,0.27,0.27,20.72,,
10791.0,Haryana,Hisar,Juglan,75.7911,29.2598,2023.0,7.95,1244.0,0.0,207.0,241.0,1.3,118.0,9.0,0.0,480.0,60.0,80.0,82.0,8.0,0.08,0.33,6.36,,
10790.0,Haryana,Hisar,Gianpura,76.0227,29.3441,2023.0,7.58,6612.0,0.0,451.0,1590.0,1.5,389.0,25.0,0.0,2280.0,184.0,443.0,344.0,35.0,0.13,0.35,14.17,,
10789.0,Haryana,Hisar,Behbalpur,75.7894,29.2833,2023.0,7.44,7126.0,0.0,403.0,1527.0,0.66,864.0,21.0,0.0,2700.0,328.0,457.0,324.0,13.0,0.35,0.08,29.47,,
10818.0,Haryana,Hisar,Dhansu,75.7956,29.2156,2023.0,7.1,4210.0,0.0,427.0,724.0,0.47,594.0,25.0,0.0,1500.0,192.0,248.0,235.0,3.0,0.05,0.12,2.73,,
10853.0,Haryana,Jhajjar,Birdhana,76.7796,28.5171,2023.0,8.45,481.0,24.0,122.0,78.0,0.45,0.0,0.0,0.0,130.0,16.0,22.0,57.0,5.0,0.06,0.67,6.35,,
10819.0,Haryana,Hisar,Hisar,75.7167,29.1542,2023.0,7.73,9364.0,0.0,403.0,2286.0,0.53,522.0,43.0,0.0,1910.0,172.0,360.0,992.0,43.0,0.08,0.07,24.7,,
10821.0,Haryana,Hisar,Mangali,75.7392,29.0369,2023.0,7.79,1602.0,0.0,317.0,320.0,1.7,29.0,65.0,0.0,210.0,40.0,27.0,279.0,3.0,0.01,1.41,10.87,,
10851.0,Haryana,Jhajjar,Wazirpur,76.57,28.6825,2023.0,7.66,2160.0,0.0,683.0,255.0,2.2,103.0,122.0,0.0,741.0,40.0,156.0,144.0,92.0,0.11,0.19,25.39,,
10850.0,Haryana,Jhajjar,Majra Dubhaldhan,76.4944,28.7,2023.0,8.81,193.0,24.0,49.0,14.0,0.7,0.0,0.0,0.0,90.0,16.0,12.0,5.0,4.0,0.04,2.47,1.5,,
10849.0,Haryana,Jhajjar,Dubaldhna,76.485,28.6873,2023.0,8.45,2281.0,24.0,85.0,581.0,0.48,164.0,6.0,0.0,530.0,68.0,88.0,265.0,27.0,0.1,1.95,2.63,,
10848.0,Haryana,Jhajjar,Dhandlah,76.621,28.7555,2023.0,8.55,1118.0,12.0,85.0,220.0,0.5,127.0,1.0,0.0,390.0,20.0,83.0,72.0,5.0,0.05,2.72,2.63,,
10847.0,Haryana,Jhajjar,Chamanpura,76.6333,28.6958,2023.0,8.1,1309.0,0.0,464.0,28.0,2.4,24.0,11.0,0.0,330.0,60.0,44.0,62.0,9.0,0.05,0.99,18.11,,
10846.0,Haryana,Jhajjar,Bigoa,76.4306,28.6722,2023.0,8.08,1626.0,0.0,403.0,184.0,1.8,166.0,24.0,0.0,520.0,140.0,41.0,129.0,6.0,0.04,0.38,12.65,,
10845.0,Haryana,Jhajjar,Sankol,76.8417,28.675,2023.0,8.71,862.0,84.0,159.0,113.0,1.1,0.0,1.0,0.0,240.0,44.0,32.0,87.0,11.0,0.03,0.75,1.27,,
10844.0,Haryana,Jhajjar,Munda Khera,76.8408,28.5179,2023.0,8.47,278.0,12.0,37.0,50.0,0.47,0.0,1.0,0.0,60.0,8.0,10.0,28.0,3.0,0.03,2.0,0.77,,
10842.0,Haryana,Jhajjar,Kulashi,76.91,28.7739,2023.0,8.63,949.0,36.0,281.0,92.0,1.7,31.0,17.0,0.0,310.0,36.0,54.0,65.0,26.0,0.06,0.64,16.89,,
10841.0,Haryana,Jhajjar,Kheri Jat,76.7864,28.5929,2023.0,8.65,373.0,12.0,61.0,64.0,0.54,0.0,1.0,0.0,110.0,12.0,20.0,24.0,4.0,0.03,2.58,0.84,,
10840.0,Haryana,Jhajjar,Gabhana,76.8417,28.5708,2023.0,7.84,6763.0,0.0,500.0,1461.0,1.6,615.0,180.0,0.0,2562.0,148.0,533.0,347.0,56.0,0.06,0.17,66.67,,
10839.0,Haryana,Jhajjar,Dulhera,76.7833,28.65,2023.0,7.66,5413.0,0.0,574.0,1489.0,1.2,70.0,40.0,0.0,1541.0,112.0,306.0,342.0,356.0,0.04,0.27,9.91,,
10838.0,Haryana,Jhajjar,Deasalpur,76.867,28.6453,2023.0,8.67,349.0,12.0,61.0,64.0,0.5,0.0,1.0,0.0,120.0,20.0,17.0,19.0,5.0,0.04,2.2,0.87,,
10837.0,Haryana,Jhajjar,Chhara,76.7167,28.7,2023.0,8.0,823.0,0.0,220.0,85.0,1.8,77.0,7.0,0.0,210.0,32.0,32.0,67.0,39.0,0.08,0.74,19.08,,
10836.0,Haryana,Jhajjar,Asoda Todran,76.8542,28.7597,2023.0,8.18,4333.0,0.0,488.0,950.0,0.26,378.0,16.0,0.0,1371.0,180.0,224.0,373.0,8.0,0.12,0.34,44.53,,
10835.0,Haryana,Hisar,Uklana Mandi,75.8831,29.5063,2023.0,7.68,3306.0,0.0,244.0,675.0,1.5,273.0,25.0,0.0,750.0,80.0,134.0,324.0,17.0,0.03,0.14,10.9,,
10834.0,Haryana,Hisar,Sohu,75.8303,29.4911,2023.0,7.57,2995.0,0.0,437.0,774.0,1.9,123.0,15.0,0.0,1180.0,88.0,233.0,135.0,116.0,0.0,0.25,30.89,,
10833.0,Haryana,Hisar,Lohari Ragho,76.0553,29.2553,2023.0,7.71,5530.0,0.0,293.0,1441.0,0.85,210.0,25.0,0.0,1720.0,140.0,333.0,361.0,28.0,0.02,0.37,2.02,,
10832.0,Haryana,Hisar,Kinnar,76.1315,29.3339,2023.0,7.8,2930.0,0.0,464.0,391.0,0.9,421.0,8.0,0.0,670.0,92.0,107.0,334.0,18.0,0.06,0.55,44.51,,
10831.0,Haryana,Hisar,Kheri Roj,75.4228,29.2566,2023.0,7.93,377.0,0.0,183.0,35.0,0.77,0.0,6.0,0.0,150.0,52.0,49.0,20.0,5.0,0.04,0.53,22.57,,
10830.0,Haryana,Hisar,Kapro,76.084,29.3309,2023.0,7.66,11150.0,0.0,476.0,3152.0,2.9,245.0,25.0,0.0,2140.0,148.0,430.0,1338.0,6.0,0.34,0.01,21.67,,
10829.0,Haryana,Hisar,Rajthal,76.1911,29.256,2023.0,8.01,2035.0,0.0,664.0,241.0,0.94,74.0,1.0,0.0,590.0,52.0,112.0,162.0,16.0,0.35,0.04,20.99,,
10828.0,Haryana,Hisar,Narnaund,76.1275,29.2147,2023.0,7.92,2898.0,0.0,403.0,483.0,1.1,310.0,6.0,0.0,600.0,60.0,109.0,354.0,17.0,0.01,0.11,17.32,,
10827.0,Haryana,Hisar,Moth Majra,76.0975,29.2055,2023.0,8.05,1712.0,0.0,439.0,227.0,1.2,132.0,19.0,0.0,460.0,48.0,83.0,153.0,16.0,0.22,0.3,20.3,,
10826.0,Haryana,Hisar,Khotkalan,76.175,29.3875,2023.0,7.39,293.0,0.0,94.0,47.0,0.58,0.0,1.0,0.0,120.0,12.0,22.0,7.0,3.0,0.02,0.31,2.64,,
10825.0,Haryana,Hisar,Kheri Jalab,76.0842,29.3309,2023.0,7.76,600.0,0.0,213.0,57.0,1.1,59.0,3.0,0.0,180.0,32.0,24.0,57.0,22.0,0.02,1.37,10.03,,
10824.0,Haryana,Hisar,Chaudhary Was,75.6058,29.0117,2023.0,7.93,1131.0,0.0,372.0,227.0,1.3,21.0,1.0,0.0,440.0,51.0,76.0,88.0,24.0,0.04,0.74,18.43,,
10823.0,Haryana,Hisar,Balasmand,75.4916,29.0719,2023.0,7.45,1648.0,0.0,488.0,284.0,0.68,0.0,4.0,0.0,580.0,16.0,131.0,113.0,8.0,0.03,0.29,3.34,,
10822.0,Haryana,Hisar,Mirka,75.7593,29.0781,2023.0,7.96,390.0,0.0,183.0,47.0,0.86,0.0,2.0,0.0,180.0,34.0,23.0,17.0,7.0,0.04,0.18,2.37,,
10820.0,Haryana,Hisar,Kharar-Alipur,75.717,29.1542,2023.0,7.93,7081.0,0.0,464.0,1775.0,1.8,247.0,15.0,0.0,1040.0,72.0,209.0,994.0,19.0,0.07,0.17,31.38,,
10788.0,Haryana,Hisar,Barwala,75.9089,29.3564,2023.0,7.97,1466.0,0.0,403.0,170.0,9.8,42.0,17.0,0.0,290.0,36.0,49.0,171.0,13.0,0.01,2.1,23.43,,
10920.0,Haryana,Jind,Baroda,76.1889,29.4389,2023.0,8.49,1346.0,48.0,256.0,184.0,1.7,98.0,1.0,0.0,230.0,36.0,34.0,170.0,62.0,0.05,0.95,19.48,,
10922.0,Haryana,Jind,Ghaso Kalan,76.434,29.354,2023.0,8.03,2330.0,0.0,464.0,397.0,1.2,185.0,60.0,0.0,681.0,124.0,90.0,240.0,15.0,0.04,0.38,30.26,,
11020.0,Haryana,Karnal,Nilokheri,76.9309,29.8551,2023.0,8.05,865.0,0.0,390.0,92.0,1.7,50.0,6.0,0.0,380.0,28.0,75.0,59.0,6.0,0.2,0.73,39.55,,
11019.0,Haryana,Karnal,Majra Roran,76.7292,29.7875,2023.0,7.92,906.0,0.0,366.0,71.0,0.8,205.0,9.0,0.0,400.0,32.0,78.0,101.0,7.0,0.02,0.71,52.05,,
11018.0,Haryana,Karnal,Karsadod,76.7096,29.8435,2023.0,8.12,1142.0,0.0,512.0,128.0,1.1,0.0,11.0,0.0,360.0,24.0,73.0,111.0,9.0,0.06,0.67,41.32,,
11017.0,Haryana,Karnal,Gholpura,76.7904,29.8255,2023.0,7.9,876.0,0.0,390.0,107.0,0.58,52.0,14.0,0.0,360.0,48.0,58.0,79.0,8.0,0.1,0.36,32.52,,
11016.0,Haryana,Karnal,Amin,76.879,29.9037,2023.0,7.81,604.0,0.0,305.0,57.0,0.68,93.0,1.0,0.0,320.0,64.0,39.0,49.0,6.0,0.13,0.64,24.64,,
11015.0,Haryana,Karnal,Amargarh,76.9874,29.8497,2023.0,8.39,939.0,42.0,500.0,50.0,1.8,5.0,15.0,0.0,420.0,32.0,83.0,66.0,10.0,0.02,0.41,50.7,,
11014.0,Haryana,Karnal,Kurlan,76.75,29.55,2023.0,8.23,791.0,0.0,329.0,64.0,1.3,93.0,0.0,0.0,110.0,32.0,7.0,163.0,2.0,0.04,2.58,17.2,,
11013.0,Haryana,Karnal,Randoli,77.1362,29.8348,2023.0,7.76,539.0,0.0,110.0,50.0,0.39,195.0,0.0,0.0,260.0,36.0,41.0,47.0,5.0,0.06,1.1,21.41,,
11012.0,Haryana,Karnal,Newal,77.0467,29.7239,2023.0,8.06,1301.0,0.0,573.0,107.0,0.68,12.0,27.0,0.0,360.0,64.0,49.0,135.0,7.0,0.03,0.72,44.73,,
11011.0,Haryana,Karnal,Nalvi Kalan,77.0981,29.7008,2023.0,7.8,1208.0,0.0,488.0,64.0,0.59,190.0,12.0,0.0,500.0,36.0,100.0,91.0,6.0,0.04,0.77,38.84,,
8664.0,Uttar Pradesh,Prayagraj,Chanethu,82.2875,25.5078,2023.0,7.97,1690.0,0.0,586.0,135.0,0.6,145.0,22.0,0.0,340.0,40.0,58.0,240.0,3.0,0.37,0.0,23.44,,
11009.0,Haryana,Karnal,Chorpura,77.1167,29.7833,2023.0,8.42,500.0,24.0,220.0,36.0,0.9,0.0,0.0,0.0,120.0,24.0,15.0,70.0,3.0,0.15,3.42,5.72,,
11008.0,Haryana,Karnal,Shekhpura,77.0167,29.7167,2023.0,7.68,650.0,0.0,281.0,43.0,0.52,24.0,0.0,0.0,205.0,36.0,28.0,50.0,4.0,0.03,1.86,23.23,,
11007.0,Haryana,Karnal,Sangoi,77.0297,29.7839,2023.0,8.5,494.0,36.0,244.0,50.0,1.5,0.0,4.0,0.0,190.0,24.0,32.0,65.0,6.0,0.01,0.49,21.09,,
11006.0,Haryana,Karnal,Salarpur,77.0902,29.7859,2023.0,7.62,737.0,0.0,366.0,36.0,2.0,55.0,5.0,0.0,290.0,32.0,51.0,56.0,7.0,0.02,0.59,25.01,,
11005.0,Haryana,Karnal,Ranwar,77.0204,29.644,2023.0,7.93,476.0,0.0,244.0,50.0,1.3,10.0,1.0,0.0,220.0,40.0,29.0,28.0,5.0,0.05,0.72,10.89,,
11004.0,Haryana,Karnal,Mohidinpur,77.0772,29.6489,2023.0,7.96,530.0,0.0,268.0,50.0,1.5,0.0,0.0,0.0,240.0,48.0,29.0,25.0,5.0,0.02,0.74,12.57,,
11003.0,Haryana,Karnal,Karnal Cssri,76.95,29.683,2023.0,7.99,830.0,0.0,464.0,57.0,1.2,0.0,9.0,0.0,260.0,40.0,39.0,96.0,8.0,0.02,0.71,26.44,,
11002.0,Haryana,Karnal,Kairwali,77.0417,29.6222,2023.0,7.94,456.0,0.0,183.0,71.0,1.6,15.0,0.0,0.0,210.0,20.0,85.0,27.0,4.0,0.01,0.68,9.23,,
11001.0,Haryana,Karnal,Bara Gaon,77.066,29.7562,2023.0,8.23,442.0,0.0,195.0,50.0,0.62,45.0,1.0,0.0,120.0,12.0,22.0,74.0,2.0,0.15,3.07,7.48,,
11000.0,Haryana,Karnal,Muradgarh,77.0778,29.8621,2023.0,8.24,557.0,0.0,232.0,50.0,1.3,32.0,2.0,0.0,220.0,48.0,24.0,35.0,5.0,0.03,0.86,17.93,,
10999.0,Haryana,Karnal,Kalri Jagir,77.1333,29.9139,2023.0,7.8,350.0,0.0,207.0,43.0,0.36,22.0,1.0,0.0,220.0,36.0,32.0,15.0,4.0,0.33,1.24,6.65,,
10998.0,Haryana,Karnal,Islamnagar,77.1125,29.925,2023.0,7.92,868.0,0.0,427.0,28.0,0.5,122.0,0.0,0.0,310.0,64.0,36.0,95.0,7.0,5.91,2.98,40.93,,
10997.0,Haryana,Karnal,Indri,77.0558,29.8797,2023.0,7.63,818.0,0.0,281.0,85.0,1.0,92.0,25.0,0.0,370.0,76.0,44.0,44.0,6.0,0.03,0.68,32.24,,
10996.0,Haryana,Karnal,Dhumsi,77.2995,30.1727,2023.0,7.74,799.0,0.0,244.0,36.0,1.2,218.0,6.0,0.0,320.0,40.0,54.0,74.0,7.0,0.03,0.81,31.73,,
10995.0,Haryana,Karnal,Phurlak,74.9333,29.55,2023.0,7.7,746.0,0.0,403.0,71.0,0.54,121.0,7.0,0.0,370.0,40.0,66.0,88.0,5.0,0.05,0.66,19.05,,
10994.0,Haryana,Karnal,Munak,76.8488,29.5215,2023.0,7.31,1061.0,0.0,427.0,92.0,1.8,105.0,15.0,0.0,350.0,52.0,54.0,108.0,21.0,0.33,1.0,41.94,,
10993.0,Haryana,Karnal,Kutail,77.0222,29.5861,2023.0,7.44,950.0,0.0,427.0,71.0,1.1,122.0,21.0,0.0,530.0,40.0,105.0,29.0,8.0,0.03,0.42,57.83,,
10992.0,Haryana,Karnal,Garhi Khajur,77.0506,29.5315,2023.0,7.92,938.0,0.0,403.0,121.0,0.95,50.0,1.0,0.0,420.0,60.0,66.0,59.0,9.0,0.06,0.52,21.03,,
11021.0,Haryana,Karnal,Smana Bahu,76.9134,29.9022,2023.0,7.85,1277.0,0.0,488.0,149.0,0.95,15.0,36.0,0.0,370.0,32.0,71.0,100.0,59.0,0.11,0.69,30.96,,
10991.0,Haryana,Karnal,Gagsina,76.8792,29.5543,2023.0,8.12,773.0,0.0,366.0,50.0,1.0,18.0,24.0,0.0,280.0,40.0,44.0,50.0,20.0,0.02,0.15,4.5,,
11022.0,Haryana,Karnal,Sohlo,76.859,29.8269,2023.0,8.09,762.0,0.0,342.0,64.0,1.1,20.0,7.0,0.0,190.0,28.0,29.0,94.0,6.0,0.03,0.86,27.59,,
11024.0,Haryana,Karnal,Nissing,76.7932,29.6864,2023.0,7.84,1348.0,0.0,647.0,107.0,1.1,0.0,13.0,0.2,490.0,56.0,85.0,86.0,14.0,0.1,1.38,43.55,,
11054.0,Haryana,Kurukshetra,Kumhar Mazra,76.6581,30.1431,2023.0,7.95,804.0,0.0,427.0,43.0,0.72,98.0,3.0,0.0,310.0,40.0,51.0,94.0,5.0,0.02,0.59,33.09,,
11053.0,Haryana,Kurukshetra,Jharauli Khurd,76.7878,30.1472,2023.0,7.67,1106.0,0.0,573.0,57.0,0.75,112.0,2.0,0.0,440.0,48.0,78.0,103.0,9.0,0.1,1.3,53.36,,
11052.0,Haryana,Kurukshetra,Jandheri Part,76.9078,30.1483,2023.0,8.04,928.0,0.0,427.0,71.0,0.53,82.0,1.0,0.0,370.0,48.0,61.0,76.0,6.0,0.07,0.99,48.37,,
11051.0,Haryana,Kurukshetra,Charhuni Jattan,76.8749,30.942,2023.0,8.17,445.0,0.0,244.0,43.0,0.39,30.0,1.0,0.0,110.0,20.0,15.0,85.0,3.0,0.09,2.95,8.66,,
11050.0,Haryana,Kurukshetra,Thana,76.5083,29.9083,2023.0,8.21,943.0,0.0,427.0,71.0,0.58,122.0,14.0,0.0,330.0,20.0,68.0,119.0,6.0,0.0,0.79,37.03,,
11049.0,Haryana,Kurukshetra,Sandholi,76.6285,29.9571,2023.0,7.95,943.0,0.0,488.0,57.0,0.52,105.0,11.0,0.0,400.0,40.0,73.0,89.0,7.0,0.81,0.66,34.92,,
11048.0,Haryana,Kurukshetra,Pehowa,76.58,29.98,2023.0,7.68,717.0,0.0,415.0,36.0,0.63,82.0,1.0,0.0,450.0,20.0,97.0,12.0,6.0,0.02,0.82,30.05,,
11047.0,Haryana,Kurukshetra,Megha Majra,76.7114,30.0906,2023.0,8.42,571.0,12.0,207.0,85.0,0.42,0.0,1.0,0.0,50.0,20.0,0.0,122.0,1.0,0.0,0.01,0.0,,
11046.0,Haryana,Kurukshetra,Isaque,76.4917,30.0167,2023.0,8.04,1456.0,0.0,756.0,99.0,1.2,0.0,13.0,0.0,300.0,40.0,49.0,215.0,9.0,0.06,1.86,33.94,,
11045.0,Haryana,Kurukshetra,Chhajupur,76.6374,30.0156,2023.0,8.04,824.0,0.0,305.0,71.0,0.92,100.0,3.0,0.0,120.0,20.0,17.0,157.0,3.0,0.08,2.03,14.46,,
11044.0,Haryana,Kurukshetra,Bodhni,76.56,30.05,2023.0,8.09,660.0,0.0,403.0,28.0,0.85,0.0,0.0,0.0,130.0,20.0,19.0,111.0,4.0,0.01,2.85,19.74,,
11043.0,Haryana,Kurukshetra,Dabkhera,76.78,29.98,2023.0,7.98,835.0,0.0,390.0,43.0,0.2,157.0,8.0,0.0,450.0,40.0,85.0,43.0,9.0,0.51,0.78,24.87,,
11042.0,Haryana,Kurukshetra,Bhartauli,77.0513,30.0884,2023.0,7.91,607.0,0.0,342.0,57.0,0.63,20.0,2.0,0.0,290.0,60.0,34.0,41.0,7.0,0.11,0.91,21.8,,
11041.0,Haryana,Kurukshetra,Baronda,77.06,29.96,2023.0,7.91,750.0,0.0,415.0,50.0,0.88,0.0,3.0,0.0,210.0,40.0,27.0,95.0,7.0,0.05,0.72,15.07,,
11040.0,Haryana,Kurukshetra,Ban,77.07,29.99,2023.0,7.57,1100.0,0.0,598.0,92.0,0.75,0.0,22.0,0.0,370.0,88.0,36.0,119.0,11.0,0.04,0.55,90.65,,
11039.0,Haryana,Kurukshetra,Thanesar,76.8178,29.954,2023.0,8.02,494.0,0.0,232.0,43.0,0.39,85.0,1.0,0.0,260.0,36.0,41.0,37.0,4.0,0.02,1.08,9.4,,
11038.0,Haryana,Kurukshetra,Shadipur Shahabad,76.8485,30.022,2023.0,7.71,815.0,0.0,281.0,43.0,0.45,110.0,111.0,0.0,350.0,80.0,36.0,64.0,7.0,0.48,0.77,23.87,,
11037.0,Haryana,Kurukshetra,Salpani Khurd,76.7794,30.0766,2023.0,7.73,857.0,0.0,403.0,85.0,0.53,60.0,11.0,0.0,350.0,80.0,36.0,77.0,7.0,0.35,0.47,29.94,,
11036.0,Haryana,Kurukshetra,Pabnawa,76.6582,29.8946,2023.0,7.82,1189.0,0.0,610.0,71.0,1.5,12.0,17.0,0.0,200.0,36.0,27.0,195.0,7.0,0.02,0.84,40.2,,
11035.0,Haryana,Kurukshetra,Kirmach,76.7874,29.899,2023.0,7.89,1160.0,0.0,488.0,128.0,0.57,12.0,12.0,0.0,260.0,36.0,41.0,145.0,23.0,0.03,0.7,34.92,,
11034.0,Haryana,Kurukshetra,Bachki,76.69,30.04,2023.0,7.72,611.0,0.0,305.0,50.0,0.54,72.0,5.0,0.0,270.0,40.0,41.0,59.0,6.0,0.48,1.05,26.04,,
11033.0,Haryana,Kurukshetra,Ramsaran Majra,76.9975,30.0806,2023.0,8.09,525.0,0.0,268.0,50.0,0.47,65.0,1.0,0.0,240.0,24.0,44.0,54.0,6.0,0.06,0.98,14.0,,
11031.0,Haryana,Kurukshetra,Buhawa,76.9855,30.1477,2023.0,7.82,784.0,0.0,451.0,36.0,0.08,65.0,0.0,0.0,350.0,32.0,66.0,63.0,5.0,0.05,0.89,26.9,,
11030.0,Haryana,Kurukshetra,Berthala,76.98,30.13,2023.0,7.94,500.0,0.0,293.0,50.0,0.36,25.0,0.0,0.0,180.0,24.0,29.0,72.0,4.0,0.06,1.24,9.7,,
11029.0,Haryana,Karnal,Hathlana,76.8455,29.6812,2023.0,7.79,843.0,0.0,573.0,64.0,1.8,0.0,8.0,0.0,330.0,48.0,51.0,110.0,7.0,0.03,0.49,37.36,,
11028.0,Haryana,Karnal,Sambhli,76.7914,29.7725,2023.0,8.12,833.0,0.0,561.0,43.0,1.4,9.0,9.0,0.0,270.0,80.0,17.0,120.0,8.0,0.16,0.85,28.77,,
11027.0,Haryana,Karnal,Jundla,76.875,29.65,2023.0,7.85,1203.0,0.0,671.0,57.0,3.5,110.0,17.0,0.0,350.0,28.0,68.0,188.0,10.0,0.02,0.49,44.43,,
11026.0,Haryana,Karnal,Gonder,76.74,29.65,2023.0,7.91,644.0,0.0,293.0,50.0,0.75,93.0,2.0,0.0,170.0,48.0,12.0,110.0,3.0,0.31,7.38,8.4,,
11025.0,Haryana,Karnal,Amupur Chakda,76.7414,29.7739,2023.0,7.51,2800.0,0.0,439.0,348.0,0.48,535.0,26.0,0.0,910.0,184.0,109.0,232.0,16.0,0.14,0.55,39.12,,
11023.0,Haryana,Karnal,Sonkra,76.88,29.7847,2023.0,7.68,1046.0,0.0,610.0,71.0,9.7,50.0,12.0,0.0,300.0,28.0,56.0,177.0,6.0,0.06,0.62,42.17,,
10921.0,Haryana,Jind,Budain,76.1253,29.418,2023.0,8.09,3338.0,0.0,732.0,553.0,1.6,207.0,115.0,0.0,1221.0,72.0,253.0,180.0,90.0,0.07,0.34,45.92,,
10990.0,Haryana,Karnal,Dinger Majra,76.9965,29.5246,2023.0,7.85,774.0,0.0,317.0,28.0,0.68,94.0,8.0,0.0,330.0,44.0,54.0,35.0,5.0,0.04,0.74,23.68,,
10988.0,Haryana,Karnal,Balhera,77.0875,29.475,2023.0,7.74,1108.0,0.0,439.0,71.0,0.62,160.0,0.0,0.0,570.0,100.0,78.0,27.0,6.0,0.03,0.57,24.28,,
10953.0,Haryana,Kaithal,Parbhot,76.2951,29.8999,2023.0,7.97,575.0,0.0,366.0,50.0,0.72,0.0,4.0,0.0,300.0,32.0,54.0,33.0,6.0,0.0,0.01,0.0,,
10952.0,Haryana,Kaithal,Padla,76.2874,29.8114,2023.0,8.73,1792.0,42.0,427.0,178.0,0.35,152.0,11.0,0.0,300.0,32.0,54.0,292.0,12.0,0.05,1.08,47.38,,
10951.0,Haryana,Kaithal,Mundri,76.5046,29.7773,2023.0,8.07,1228.0,0.0,549.0,57.0,0.35,15.0,27.0,0.0,180.0,28.0,27.0,89.0,157.0,0.22,0.7,38.46,,
10950.0,Haryana,Kaithal,Manaspatti,76.3367,29.8173,2023.0,7.87,1629.0,0.0,610.0,142.0,0.12,120.0,21.0,0.0,300.0,20.0,61.0,248.0,8.0,0.0,0.9,38.44,,
10949.0,Haryana,Kaithal,Kurar,76.5441,29.6547,2023.0,8.1,1320.0,0.0,586.0,78.0,0.4,120.0,12.0,0.0,180.0,12.0,36.0,250.0,5.0,0.02,1.98,45.85,,
10948.0,Haryana,Kaithal,Kheorak,76.4775,29.8664,2023.0,7.9,726.0,0.0,305.0,114.0,0.13,30.0,4.0,0.0,240.0,20.0,46.0,93.0,5.0,0.02,1.52,25.29,,
10947.0,Haryana,Kaithal,Khanpur,76.3705,29.8521,2023.0,7.61,347.0,0.0,122.0,50.0,0.09,68.0,1.0,0.0,200.0,72.0,5.0,19.0,3.0,0.21,0.65,3.73,,
10946.0,Haryana,Kaithal,Kaithal,76.4,29.73,2023.0,7.5,4594.0,0.0,537.0,831.0,0.13,763.0,25.0,0.7,830.0,116.0,131.0,729.0,12.0,0.05,0.41,35.57,,
10945.0,Haryana,Kaithal,Guhna,76.2606,29.7658,2023.0,8.0,4280.0,0.0,549.0,533.0,0.13,920.0,30.0,0.0,1200.0,28.0,275.0,438.0,27.0,0.04,0.06,43.3,,
10944.0,Haryana,Kaithal,Deoban,76.4136,29.6908,2023.0,7.76,5781.0,0.0,488.0,1598.0,1.4,268.0,40.0,0.0,1330.0,52.0,292.0,672.0,145.0,0.13,0.23,1.77,,
10943.0,Haryana,Kaithal,Theh Banhera,76.4157,30.261,2023.0,7.96,859.0,0.0,378.0,78.0,0.08,70.0,0.0,0.0,260.0,24.0,49.0,106.0,7.0,0.02,1.5,43.01,,
10942.0,Haryana,Kaithal,Paprala,76.4271,30.1342,2023.0,8.62,1278.0,30.0,354.0,142.0,1.4,157.0,2.0,0.0,90.0,8.0,17.0,285.0,2.0,0.02,2.93,22.36,,
10941.0,Haryana,Kaithal,Majri,76.2342,29.9804,2023.0,7.86,877.0,0.0,317.0,142.0,0.12,15.0,4.0,0.0,250.0,44.0,34.0,102.0,8.0,0.8,3.29,39.59,,
10940.0,Haryana,Kaithal,Kakeor,76.4326,29.9583,2023.0,7.96,579.0,0.0,305.0,36.0,0.7,82.0,7.0,0.0,320.0,36.0,56.0,33.0,5.0,0.02,0.94,14.06,,
10939.0,Haryana,Kaithal,Hemu Majra,76.2705,30.0459,2023.0,8.04,1026.0,0.0,378.0,92.0,0.02,82.0,1.0,0.0,170.0,12.0,34.0,165.0,4.0,0.01,2.65,35.8,,
10938.0,Haryana,Kaithal,Cheeka,76.3216,30.0454,2023.0,8.3,699.0,0.0,354.0,85.0,0.01,5.0,6.0,0.0,250.0,20.0,49.0,78.0,4.0,0.01,1.88,26.49,,
10937.0,Haryana,Kaithal,Bhunna,76.3191,29.9734,2023.0,8.15,1072.0,0.0,500.0,128.0,1.1,50.0,12.0,0.0,400.0,20.0,85.0,114.0,8.0,0.02,1.27,65.34,,
10935.0,Haryana,Kaithal,Balhera,76.6614,29.8472,2023.0,8.95,1530.0,48.0,610.0,156.0,0.1,15.0,22.0,0.0,250.0,28.0,44.0,265.0,10.0,0.04,1.47,78.82,,
10933.0,Haryana,Kaithal,Kaul,76.64,29.863,2023.0,8.0,895.0,0.0,476.0,71.0,0.27,52.0,15.0,0.0,230.0,40.0,32.0,150.0,6.0,0.2,1.4,41.78,,
10932.0,Haryana,Kaithal,Jadola,76.58,29.87,2023.0,7.7,1088.0,0.0,586.0,71.0,0.25,55.0,11.0,0.0,300.0,20.0,61.0,157.0,7.0,0.03,2.62,30.29,,
10931.0,Haryana,Kaithal,Kamalpur,76.3256,29.6009,2023.0,7.68,3116.0,0.0,476.0,653.0,0.68,280.0,24.0,0.0,1070.0,68.0,219.0,245.0,23.0,0.04,0.43,10.65,,
10930.0,Haryana,Jind,Nimna Bad,76.6993,29.455,2023.0,8.35,1715.0,36.0,268.0,241.0,2.0,182.0,36.0,0.0,350.0,16.0,75.0,192.0,85.0,0.02,0.44,47.5,,
10929.0,Haryana,Jind,Uchana,76.1877,29.4775,2023.0,8.37,2893.0,156.0,830.0,184.0,2.3,115.0,50.0,0.0,400.0,52.0,66.0,424.0,55.0,0.04,0.73,101.6,,
10928.0,Haryana,Jind,Surbrah,76.071,29.4866,2023.0,8.58,2466.0,48.0,635.0,369.0,9.3,67.0,48.0,0.0,661.0,140.0,75.0,249.0,78.0,0.01,0.39,138.5,,
10927.0,Haryana,Jind,Saffa Khera,76.1725,29.5145,2023.0,8.38,302.0,24.0,49.0,57.0,0.65,0.0,1.0,0.0,150.0,40.0,12.0,6.0,4.0,0.02,1.61,2.17,,
10926.0,Haryana,Jind,Makhand,76.1076,29.4268,2023.0,8.43,278.0,12.0,61.0,35.0,0.35,0.0,2.0,0.0,60.0,8.0,10.0,28.0,4.0,0.03,1.75,2.28,,
10925.0,Haryana,Jind,Khatkar,76.2429,29.4017,2023.0,8.25,7586.0,0.0,293.0,1978.0,1.1,451.0,230.0,0.0,1481.0,96.0,302.0,990.0,91.0,0.04,0.45,51.73,,
10924.0,Haryana,Jind,Kalta,76.2681,29.4345,2023.0,8.64,1066.0,24.0,134.0,206.0,1.8,75.0,0.0,0.0,220.0,8.0,49.0,143.0,9.0,0.04,1.44,9.39,,
10923.0,Haryana,Jind,Ghaso Khurd(Repeted),76.1528,29.5236,2023.0,8.03,2330.0,0.0,464.0,397.0,1.2,185.0,60.0,0.0,681.0,124.0,90.0,240.0,15.0,0.04,0.38,30.26,,
10954.0,Haryana,Kaithal,Peoda,76.4166,29.7472,2023.0,7.89,2899.0,0.0,598.0,312.0,0.3,545.0,9.0,0.0,550.0,56.0,100.0,435.0,12.0,0.05,0.77,63.32,,
10989.0,Haryana,Karnal,Bijna,76.9234,29.6049,2023.0,7.85,993.0,0.0,427.0,71.0,1.2,76.0,16.0,0.0,330.0,20.0,68.0,97.0,7.0,0.02,0.5,16.41,,
10955.0,Haryana,Kaithal,Pharal,76.5826,29.8382,2023.0,7.82,2598.0,0.0,561.0,334.0,0.87,188.0,234.0,0.0,650.0,60.0,122.0,235.0,125.0,0.18,0.46,21.41,,
10957.0,Haryana,Kaithal,Balu,76.3694,29.6514,2023.0,7.55,359.0,0.0,146.0,50.0,0.05,82.0,2.0,0.0,250.0,48.0,32.0,13.0,5.0,0.12,0.9,11.3,,
10987.0,Haryana,Karnal,Kheri Naru,76.983,29.693,2023.0,7.72,1230.0,0.0,464.0,71.0,1.0,185.0,17.0,0.0,360.0,48.0,58.0,148.0,8.0,0.01,0.34,48.66,,
